stop_id,stop_code,stop_name,stop_desc,stop_lat,stop_lon,stop_url,location_type,parent_station
17645,,"Elevatorius",,54.88636,23.91016,https://www.stops.lt/kaunas/index.html#stop/1168,,
17529,,"H. ir O. Minkovskių g.",,54.89171,23.89603,https://www.stops.lt/kaunas/index.html#stop/2030,,
17644,,"Malūnas",,54.88821,23.90488,https://www.stops.lt/kaunas/index.html#stop/1167,,
16220,,"Lazdynėlių g. A",,54.93508,23.87902,https://www.stops.lt/kaunas/index.html#stop/936,,
16218,,"Lazdynėlių g. B",,54.93518,23.87821,https://www.stops.lt/kaunas/index.html#stop/935,,
14803,,"Lazdynėlių g. C",,54.93531,23.87867,https://www.stops.lt/kaunas/index.html#stop/3019,,
16213,,"A. Šapokos g. B",,54.93567,23.86181,https://www.stops.lt/kaunas/index.html#stop/931,,
16413,,"A. Žmuidzinavičiaus g. A",,54.93867,23.85841,https://www.stops.lt/kaunas/index.html#stop/949,,
16214,,"K. Čerbulėno g. A",,54.93630,23.86088,https://www.stops.lt/kaunas/index.html#stop/932,,
15103,,"Pėsčiųjų tiltas B",,54.93386,23.93002,https://www.stops.lt/kaunas/index.html#stop/812,,
15123,,"Aukštutinių Kaniūkų g. A",,54.92605,23.80288,https://www.stops.lt/kaunas/index.html#stop/816,,
15122,,"Aukštutinių Kaniūkų g. B",,54.92608,23.80350,https://www.stops.lt/kaunas/index.html#stop/815,,
17514,,"A. Šapokos g. A",,54.93520,23.86332,https://www.stops.lt/kaunas/index.html#stop/1143,,
16217,,"B. Brazdžionio g. A",,54.93785,23.86974,https://www.stops.lt/kaunas/index.html#stop/934,,
16216,,"B. Brazdžionio g. B",,54.93771,23.86865,https://www.stops.lt/kaunas/index.html#stop/933,,
15507,,"Keleivių išlaipinimo aikštelė",,54.91611,23.86003,https://www.stops.lt/kaunas/index.html#stop/5001,,
15596,,"Rietavo g.",,54.93127,23.88919,https://www.stops.lt/kaunas/index.html#stop/863,,
15203,,"Biruliškių g.",,54.90738,24.02360,https://www.stops.lt/kaunas/index.html#stop/832,,
15747,,"Lygioji g. A",,54.87232,23.89814,https://www.stops.lt/kaunas/index.html#stop/883,,
15748,,"Lygioji g. B",,54.87289,23.89757,https://www.stops.lt/kaunas/index.html#stop/884,,
16664,,"Prezidento V. Adamkaus gimnazija C",,54.86703,23.90142,https://www.stops.lt/kaunas/index.html#stop/1130,,
16067,,"Žiedų g.",,54.86616,23.90047,https://www.stops.lt/kaunas/index.html#stop/1140,,
16211,,"A. Žmuidzinavičiaus g. B",,54.93872,23.85789,https://www.stops.lt/kaunas/index.html#stop/930,,
15133,,"Bivylių g. A",,54.93530,23.81707,https://www.stops.lt/kaunas/index.html#stop/822,,
15134,,"Bivylių g. B",,54.93525,23.81743,https://www.stops.lt/kaunas/index.html#stop/823,,
16207,,"Chodkevičių g. A",,54.93555,23.82315,https://www.stops.lt/kaunas/index.html#stop/927,,
16206,,"Chodkevičių g. B",,54.93545,23.82295,https://www.stops.lt/kaunas/index.html#stop/926,,
16371,,"Knygnešių g. A",,54.93769,23.84975,https://www.stops.lt/kaunas/index.html#stop/945,,
16372,,"Knygnešių g. B",,54.93770,23.84876,https://www.stops.lt/kaunas/index.html#stop/946,,
16221,,"Liucijanavos g. C",,54.93550,23.83056,https://www.stops.lt/kaunas/index.html#stop/937,,
15165,,"Paltiškių g. A",,54.93611,23.82935,https://www.stops.lt/kaunas/index.html#stop/827,,
15164,,"Paltiškių g. B",,54.93607,23.82878,https://www.stops.lt/kaunas/index.html#stop/826,,
16209,,"S. Banaičio g. A",,54.93691,23.84302,https://www.stops.lt/kaunas/index.html#stop/929,,
16208,,"S. Banaičio g. B",,54.93681,23.84121,https://www.stops.lt/kaunas/index.html#stop/928,,
16550,,"Brastos g. A",,54.90386,23.87405,https://www.stops.lt/kaunas/index.html#stop/964,,
15076,,"Brastos g. B",,54.90396,23.87419,https://www.stops.lt/kaunas/index.html#stop/808,,
16794,,"Piliamiestis A",,54.90318,23.87952,https://www.stops.lt/kaunas/index.html#stop/966,,
16793,,"Piliamiestis B",,54.90331,23.87932,https://www.stops.lt/kaunas/index.html#stop/965,,
15701,,"Chemijos g. A",,54.89996,23.99958,https://www.stops.lt/kaunas/index.html#stop/873,,
16458,,"Svirplių takas A",,54.89591,24.00631,https://www.stops.lt/kaunas/index.html#stop/872,,
15764,,"Svirplių takas B",,54.89577,24.00625,https://www.stops.lt/kaunas/index.html#stop/885,,
16095,,"E. Volterio g. A",,54.94176,23.80131,https://www.stops.lt/kaunas/index.html#stop/908,,
17323,,"Klinikos A",,54.91736,23.92083,https://www.stops.lt/kaunas/index.html#stop/522,,
17324,,"Klinikos B",,54.91730,23.92081,https://www.stops.lt/kaunas/index.html#stop/688,,
15545,,"Skubios pagalbos centras",,54.92092,23.92029,https://www.stops.lt/kaunas/index.html#stop/854,,
15840,,"Amalė A",,54.91300,24.01606,https://www.stops.lt/kaunas/index.html#stop/898,,
15839,,"Amalė B",,54.91285,24.01679,https://www.stops.lt/kaunas/index.html#stop/897,,
15638,,"Urmo turgaus aikštelė",,54.91697,23.99822,https://www.stops.lt/kaunas/index.html#stop/856n,,
15208,,"Biurų centras",,54.93988,23.88612,https://www.stops.lt/kaunas/index.html#stop/833,,
14799,,"Rokakiemio g. A",,54.84033,23.94705,https://www.stops.lt/kaunas/index.html#stop/1010,,
16239,,"Vilties g. A",,54.87319,23.91537,https://www.stops.lt/kaunas/index.html#stop/162,,
14371,,"Jiesios pl. C",,54.85635,23.94222,https://www.stops.lt/kaunas/index.html#stop/794,,
15741,,"Jonučių g.",,54.85857,23.87179,https://www.stops.lt/kaunas/index.html#stop/877,,
15473,,"Pakalnės g. D",,54.88009,23.86887,https://www.stops.lt/kaunas/index.html#stop/849,,
15400,,"Suvalkiečių g. A",,54.87401,23.87510,https://www.stops.lt/kaunas/index.html#stop/844,,
15399,,"Suvalkiečių g. B",,54.87452,23.87428,https://www.stops.lt/kaunas/index.html#stop/843,,
15746,,"Mokolų g. A",,54.86430,23.87183,https://www.stops.lt/kaunas/index.html#stop/882,,
15745,,"Mokolų g. B",,54.86457,23.87196,https://www.stops.lt/kaunas/index.html#stop/881,,
16172,,"Naujadvario g. A",,54.85953,23.86330,https://www.stops.lt/kaunas/index.html#stop/918,,
16173,,"Naujadvario g. B",,54.85952,23.86309,https://www.stops.lt/kaunas/index.html#stop/919,,
16468,,"Tirkiliškiai",,54.85810,23.85692,https://www.stops.lt/kaunas/index.html#stop/920,,
16192,,"Tirkiliškių g. A",,54.86218,23.86888,https://www.stops.lt/kaunas/index.html#stop/923,,
16193,,"Tirkiliškių g. B",,54.86217,23.86861,https://www.stops.lt/kaunas/index.html#stop/924,,
2956,,"Kėdainių g. C",,54.90762,23.87516,https://www.stops.lt/kaunas/index.html#stop/678,,
14458,,"Kėdainių g. D",,54.90765,23.87573,https://www.stops.lt/kaunas/index.html#stop/1002,,
17311,,"Pamario g. A",,54.91556,24.07168,https://www.stops.lt/kaunas/index.html#stop/1096,,
17310,,"Pamario g. B",,54.91540,24.07165,https://www.stops.lt/kaunas/index.html#stop/1095,,
15618,,"Kleboniškio miško parkas A",,54.95043,23.93157,https://www.stops.lt/kaunas/index.html#stop/867,,
15975,,"Aluonos g. B",,54.94565,23.82879,https://www.stops.lt/kaunas/index.html#stop/900,,
15129,,"Liucijanavos g. A",,54.94781,23.82848,https://www.stops.lt/kaunas/index.html#stop/819,,
15177,,"Liucijanavos g. B",,54.94789,23.82861,https://www.stops.lt/kaunas/index.html#stop/830,,
15167,,"Šilagirio g. A",,54.94249,23.82888,https://www.stops.lt/kaunas/index.html#stop/828,,
15168,,"Šilagirio g. B",,54.94163,23.82909,https://www.stops.lt/kaunas/index.html#stop/829,,
15130,,"Vijūkų g. C",,54.93792,23.83046,https://www.stops.lt/kaunas/index.html#stop/820,,
15131,,"Vijūkų g. D",,54.93795,23.83058,https://www.stops.lt/kaunas/index.html#stop/821,,
17277,,"E. Levino g.",,54.94388,23.82131,https://www.stops.lt/kaunas/index.html#stop/1138,,
17281,,"Gaižuvėlės akligatvis",,54.94282,23.81551,https://www.stops.lt/kaunas/index.html#stop/1139,,
17612,,"Kraigo g. A",,54.94433,23.82393,https://www.stops.lt/kaunas/index.html#stop/1165,,
17611,,"Kraigo g. B",,54.94449,23.82485,https://www.stops.lt/kaunas/index.html#stop/1164,,
14993,,"M. ir P. Šalčių g. A",,54.94342,23.80699,https://www.stops.lt/kaunas/index.html#stop/795,,
17508,,"M. ir P. Šalčių g. B",,54.94316,23.80509,https://www.stops.lt/kaunas/index.html#stop/1141,,
14994,,"Romainiškių g. A",,54.94479,23.81141,https://www.stops.lt/kaunas/index.html#stop/796,,
14995,,"Romainiškių g. B",,54.94494,23.81156,https://www.stops.lt/kaunas/index.html#stop/797,,
4378,,"Geležinkelio stotis E",,54.88752,23.93370,https://www.stops.lt/kaunas/index.html#stop/237,,
16518,,"Jazminų g. A",,54.90453,24.04243,https://www.stops.lt/kaunas/index.html#stop/962,,
16517,,"Jazminų g. B",,54.90467,24.04382,https://www.stops.lt/kaunas/index.html#stop/961,,
16501,,"Marių g. A",,54.90111,24.03683,https://www.stops.lt/kaunas/index.html#stop/960,,
16500,,"Marių g. B",,54.90167,24.03758,https://www.stops.lt/kaunas/index.html#stop/959,,
2910,,"Neveronių g. A",,54.92009,24.07649,https://www.stops.lt/kaunas/index.html#stop/632,,
17414,,"Merkio g.",,54.91419,24.05197,https://www.stops.lt/kaunas/index.html#stop/1112,,
15082,,"Upytės g. A",,54.90738,24.04256,https://www.stops.lt/kaunas/index.html#stop/809,,
15083,,"Upytės g. B",,54.90800,24.04362,https://www.stops.lt/kaunas/index.html#stop/810,,
15332,,"Užupio g. A",,54.91174,24.04696,https://www.stops.lt/kaunas/index.html#stop/839,,
15333,,"Užupio g. B",,54.91141,24.04693,https://www.stops.lt/kaunas/index.html#stop/840,,
15160,,"Medekšinės g. A",,54.92883,23.81096,https://www.stops.lt/kaunas/index.html#stop/825,,
15159,,"Medekšinės g. B",,54.92869,23.81110,https://www.stops.lt/kaunas/index.html#stop/824,,
15125,,"Paštuvos g. A",,54.92980,23.80688,https://www.stops.lt/kaunas/index.html#stop/818,,
15124,,"Paštuvos g. B",,54.92970,23.80667,https://www.stops.lt/kaunas/index.html#stop/817,,
16182,,"Pilviškių g. B",,54.86450,23.88197,https://www.stops.lt/kaunas/index.html#stop/921,,
14370,,"Jiesios pl. B",,54.85555,23.94321,https://www.stops.lt/kaunas/index.html#stop/793,,
15383,,"Rambyno g. A",,54.88942,23.94413,https://www.stops.lt/kaunas/index.html#stop/841,,
15601,,"Rambyno g. B",,54.88883,23.94274,https://www.stops.lt/kaunas/index.html#stop/865,,
15628,,"Jūros g.",,54.90850,23.86586,https://www.stops.lt/kaunas/index.html#stop/869,,
14622,,"Kaniūkai D",,54.91948,23.82979,https://www.stops.lt/kaunas/index.html#stop/2003,,
16916,,"Kaniūkai išlaipinimas",,54.91934,23.82993,https://www.stops.lt/kaunas/index.html#stop/2006,,
16408,,"Rokelių g. A",,54.84456,23.96861,https://www.stops.lt/kaunas/index.html#stop/948,,
16386,,"Rokelių g. B",,54.84432,23.96859,https://www.stops.lt/kaunas/index.html#stop/947,,
17317,,"Spindulio g.",,54.84145,23.97129,https://www.stops.lt/kaunas/index.html#stop/1097,,
17434,,"Lubinų g. A",,54.94166,23.81343,https://www.stops.lt/kaunas/index.html#stop/1121,,
17418,,"Lubinų g. B",,54.94224,23.81356,https://www.stops.lt/kaunas/index.html#stop/1120,,
15001,,"Romainių g. A",,54.92977,23.82000,https://www.stops.lt/kaunas/index.html#stop/803,,
15000,,"Romainių g. B",,54.93104,23.81890,https://www.stops.lt/kaunas/index.html#stop/802,,
17420,,"Vieškeliuko g.",,54.93302,23.81773,https://www.stops.lt/kaunas/index.html#stop/1119,,
17431,,"Vijūkų g. A",,54.93823,23.81509,https://www.stops.lt/kaunas/index.html#stop/1122,,
17419,,"Vijūkų g. B",,54.93765,23.81545,https://www.stops.lt/kaunas/index.html#stop/1118,,
16340,,"Jono Basanavičiaus gimnazija A",,54.93330,23.89181,https://www.stops.lt/kaunas/index.html#stop/943,,
16341,,"Jono Basanavičiaus gimnazija B",,54.93318,23.89167,https://www.stops.lt/kaunas/index.html#stop/944,,
15585,,"Seniavos kapinės A",,54.85585,23.90701,https://www.stops.lt/kaunas/index.html#stop/862,,
15584,,"Seniavos kapinės B",,54.85562,23.90745,https://www.stops.lt/kaunas/index.html#stop/861,,
15553,,"Kauno ligoninė A",,54.87882,23.94589,https://www.stops.lt/kaunas/index.html#stop/4026,,
15562,,"Urmo turgus",,54.91613,23.99816,https://www.stops.lt/kaunas/index.html#stop/855,,
15068,,"Būrio g.",,54.85506,23.88050,https://www.stops.lt/kaunas/index.html#stop/806,,
15070,,"Technikumo g.",,54.85694,23.86538,https://www.stops.lt/kaunas/index.html#stop/807,,
15098,,"Vaitapilės g.",,54.85589,23.87513,https://www.stops.lt/kaunas/index.html#stop/811,,
15190,,"Žvalgų g.",,54.85628,23.87070,https://www.stops.lt/kaunas/index.html#stop/831,,
15600,,"Tilto g. D",,54.86234,23.95800,https://www.stops.lt/kaunas/index.html#stop/864,,
15743,,"Tirkiliškių g. C",,54.86110,23.86954,https://www.stops.lt/kaunas/index.html#stop/879,,
15744,,"Tirkiliškių g. D",,54.86124,23.86946,https://www.stops.lt/kaunas/index.html#stop/880,,
15107,,"Birutės g. B",,54.87058,23.97739,https://www.stops.lt/kaunas/index.html#stop/813,,
17551,,"Gamyklos g. A",,54.95124,23.89163,https://www.stops.lt/kaunas/index.html#stop/1152,,
17511,,"Šv. Kazimiero progimnazija A",,54.95023,23.88987,https://www.stops.lt/kaunas/index.html#stop/1142,,
16367,,"Vytauto Didžiojo tiltas B",,54.89219,23.89000,https://www.stops.lt/kaunas/index.html#stop/970,,
16774,,"9-asis fortas A",,54.94476,23.87635,https://www.stops.lt/kaunas/index.html#stop/1080,,
17029,,"9-asis fortas B",,54.94517,23.87679,https://www.stops.lt/kaunas/index.html#stop/1077,,
16471,,"Kauno IX forto muziejus",,54.94174,23.87578,https://www.stops.lt/kaunas/index.html#stop/958,,
17031,,"Giraitė A",,54.95805,23.86587,https://www.stops.lt/kaunas/index.html#stop/1079,,
17030,,"Giraitė B",,54.95674,23.86795,https://www.stops.lt/kaunas/index.html#stop/1078,,
16015,,"Balio Buračo gimnazija",,54.97144,24.06775,https://www.stops.lt/kaunas/index.html#stop/905,,
15621,,"Didvyriai A",,54.95209,23.77661,https://www.stops.lt/kaunas/index.html#stop/868,,
17073,,"Didvyriai B",,54.95294,23.77671,https://www.stops.lt/kaunas/index.html#stop/1086,,
15489,,"Švyturių g.",,54.94960,23.77689,https://www.stops.lt/kaunas/index.html#stop/851,,
16689,,"Fitsout A",,54.95408,24.05139,https://www.stops.lt/kaunas/index.html#stop/1116,,
16118,,"Fitsout B",,54.95421,24.05260,https://www.stops.lt/kaunas/index.html#stop/912,,
16126,,"Hella A",,54.95435,24.05801,https://www.stops.lt/kaunas/index.html#stop/913,,
16069,,"Hella B",,54.95437,24.05761,https://www.stops.lt/kaunas/index.html#stop/911,,
16012,,"1-ieji Ramučiai",,54.95305,24.03138,https://www.stops.lt/kaunas/index.html#stop/909,,
17606,,"Centrinė g. A",,54.94374,24.03785,https://www.stops.lt/kaunas/index.html#stop/1163,,
17605,,"Centrinė g. B",,54.94331,24.03802,https://www.stops.lt/kaunas/index.html#stop/1162,,
16892,,"Ramučių kultūros centras A",,54.94816,24.03809,https://www.stops.lt/kaunas/index.html#stop/992,,
16865,,"Ramučių kultūros centras B",,54.94899,24.03720,https://www.stops.lt/kaunas/index.html#stop/983,,
16802,,"Continental A",,54.94540,24.05271,https://www.stops.lt/kaunas/index.html#stop/1115,,
17350,,"Continental B",,54.94533,24.05154,https://www.stops.lt/kaunas/index.html#stop/1098,,
16694,,"Continental C",,54.94583,24.05532,https://www.stops.lt/kaunas/index.html#stop/1114,,
16909,,"J.Naujalio g.",,54.94523,23.76194,https://www.stops.lt/kaunas/index.html#stop/997,,
15033,,"Sakalų g.",,54.94599,23.76940,https://www.stops.lt/kaunas/index.html#stop/804,,
16927,,"Svarstyklės A",,54.94793,23.76257,https://www.stops.lt/kaunas/index.html#stop/1048,,
16924,,"Dobilų g.",,54.95171,23.77338,https://www.stops.lt/kaunas/index.html#stop/1045,,
2978,,"Aukščių g. A",,54.96591,23.91873,https://www.stops.lt/kaunas/index.html#stop/584,,
2979,,"Aukščių g. B",,54.96563,23.91797,https://www.stops.lt/kaunas/index.html#stop/583,,
2982,,"Domeikava",,54.96650,23.93445,https://www.stops.lt/kaunas/index.html#stop/401,,
2980,,"Domeikavos seniūnija A",,54.96699,23.92284,https://www.stops.lt/kaunas/index.html#stop/558,,
2981,,"Domeikavos seniūnija B",,54.96734,23.92432,https://www.stops.lt/kaunas/index.html#stop/402,,
2976,,"Pakalnės g. E",,54.96122,23.90613,https://www.stops.lt/kaunas/index.html#stop/698,,
2977,,"Pakalnės g. F",,54.96206,23.90784,https://www.stops.lt/kaunas/index.html#stop/699,,
16911,,"Eglių g.",,54.94001,23.77088,https://www.stops.lt/kaunas/index.html#stop/998,,
16432,,"Gandrų g. A",,54.79101,23.97298,https://www.stops.lt/kaunas/index.html#stop/952,,
16431,,"Gandrų g. B",,54.79119,23.97459,https://www.stops.lt/kaunas/index.html#stop/951,,
16433,,"Jovarų g. C",,54.79252,23.98824,https://www.stops.lt/kaunas/index.html#stop/953,,
16434,,"Jovarų g. D",,54.79247,23.98768,https://www.stops.lt/kaunas/index.html#stop/954,,
16897,,"Garažų g. C",,54.94770,24.00588,https://www.stops.lt/kaunas/index.html#stop/993,,
16014,,"Gėlių g. A",,54.88994,23.80506,https://www.stops.lt/kaunas/index.html#stop/904,,
16013,,"Gėlių g. B",,54.89010,23.80539,https://www.stops.lt/kaunas/index.html#stop/903,,
2915,,"Ringaudai A",,54.88437,23.78894,https://www.stops.lt/kaunas/index.html#stop/637,,
2914,,"Ringaudai B",,54.88470,23.78953,https://www.stops.lt/kaunas/index.html#stop/636,,
2913,,"Ringaudų pradinė mokykla A",,54.88827,23.80046,https://www.stops.lt/kaunas/index.html#stop/635,,
2912,,"Ringaudų pradinė mokykla B",,54.88790,23.79909,https://www.stops.lt/kaunas/index.html#stop/634,,
2967,,"Tabariškiai",,54.87933,23.78493,https://www.stops.lt/kaunas/index.html#stop/689,,
2928,,"Raguoliai A",,54.86098,24.05483,https://www.stops.lt/kaunas/index.html#stop/650,,
2927,,"Raguoliai B",,54.86129,24.05551,https://www.stops.lt/kaunas/index.html#stop/649,,
16811,,"Girionių aikštelė",,54.85603,24.04808,https://www.stops.lt/kaunas/index.html#stop/969,,
2926,,"Girionys A",,54.85615,24.04772,https://www.stops.lt/kaunas/index.html#stop/648,,
2925,,"Girionys B",,54.85562,24.04722,https://www.stops.lt/kaunas/index.html#stop/647,,
17445,,"Gojaus g. A",,54.95788,23.77423,https://www.stops.lt/kaunas/index.html#stop/1124,,
17446,,"Gojaus g. B",,54.95790,23.77433,https://www.stops.lt/kaunas/index.html#stop/1125,,
16903,,"A. ir A. Kriauzų pradinė mokykla",,54.94120,23.78141,https://www.stops.lt/kaunas/index.html#stop/995,,
16902,,"Raudondvario seniūnija",,54.93879,23.78029,https://www.stops.lt/kaunas/index.html#stop/994,,
16913,,"J.Janonio g.",,54.93902,23.77393,https://www.stops.lt/kaunas/index.html#stop/999,,
16933,,"Sankryža B",,54.82596,23.84897,https://www.stops.lt/kaunas/index.html#stop/1049,,
16809,,"Senosios Vainatrakio kapinės A",,54.78438,23.99869,https://www.stops.lt/kaunas/index.html#stop/967,,
16810,,"Senosios Vainatrakio kapinės B",,54.78464,23.99834,https://www.stops.lt/kaunas/index.html#stop/968,,
15472,,"Vainatrakio kapinės",,54.78263,23.99841,https://www.stops.lt/kaunas/index.html#stop/850,,
2983,,"Neveronys A",,54.92580,24.09194,https://www.stops.lt/kaunas/index.html#stop/392,,
2984,,"Neveronys B",,54.92687,24.09227,https://www.stops.lt/kaunas/index.html#stop/391,,
2941,,"Pervaža C",,54.92258,24.09040,https://www.stops.lt/kaunas/index.html#stop/663,,
2940,,"Pervaža D",,54.92278,24.09118,https://www.stops.lt/kaunas/index.html#stop/662,,
2985,,"Keramikų g. A",,54.93279,24.09744,https://www.stops.lt/kaunas/index.html#stop/390,,
2986,,"Keramikų g. B",,54.93208,24.09644,https://www.stops.lt/kaunas/index.html#stop/389,,
16881,,"Krašto g. A",,54.93591,24.11078,https://www.stops.lt/kaunas/index.html#stop/988,,
16877,,"Krašto g. B",,54.93607,24.11170,https://www.stops.lt/kaunas/index.html#stop/987,,
16419,,"Neveronių žiedas",,54.93663,24.12180,https://www.stops.lt/kaunas/index.html#stop/1051,,
14661,,"Ledos kapinės",,54.95401,23.82579,https://www.stops.lt/kaunas/index.html#stop/834,,
16926,,"Lomankos g.",,54.95843,23.75568,https://www.stops.lt/kaunas/index.html#stop/1047,,
4943,,"2-oji Karmėlava A",,54.97410,24.07357,https://www.stops.lt/kaunas/index.html#stop/754,,
14322,,"2-oji Karmėlava B",,54.97472,24.07560,https://www.stops.lt/kaunas/index.html#stop/756,,
5216,,"Biruliškės C",,54.93900,23.99569,https://www.stops.lt/kaunas/index.html#stop/735,,
5203,,"Biruliškės D",,54.93789,23.99396,https://www.stops.lt/kaunas/index.html#stop/730,,
5221,,"Karmėlava A",,54.96864,24.06150,https://www.stops.lt/kaunas/index.html#stop/738,,
5225,,"Karmėlava B",,54.96951,24.06399,https://www.stops.lt/kaunas/index.html#stop/739,,
5218,,"Margava A",,54.95413,24.02916,https://www.stops.lt/kaunas/index.html#stop/737,,
5205,,"Margava B",,54.95506,24.03176,https://www.stops.lt/kaunas/index.html#stop/732,,
5217,,"Narėpai A",,54.94616,24.01147,https://www.stops.lt/kaunas/index.html#stop/736,,
5204,,"Narėpai B",,54.94731,24.01456,https://www.stops.lt/kaunas/index.html#stop/731,,
16188,,"Vaišvydava C",,54.84378,24.04264,https://www.stops.lt/kaunas/index.html#stop/922,,
15787,,"Mastaičiai",,54.82481,23.84130,https://www.stops.lt/kaunas/index.html#stop/1090,,
15826,,"2-ieji Rokai A",,54.82632,23.94861,https://www.stops.lt/kaunas/index.html#stop/896,,
15804,,"2-ieji Rokai B",,54.82543,23.94866,https://www.stops.lt/kaunas/index.html#stop/887,,
15824,,"Paraželiai A",,54.81820,23.95647,https://www.stops.lt/kaunas/index.html#stop/895,,
15806,,"Paraželiai B",,54.81638,23.95784,https://www.stops.lt/kaunas/index.html#stop/888,,
15822,,"Raželiai A",,54.80761,23.95666,https://www.stops.lt/kaunas/index.html#stop/894,,
15808,,"Raželiai B",,54.80671,23.95719,https://www.stops.lt/kaunas/index.html#stop/889,,
16986,,"Šilelis",,54.93477,23.76107,https://www.stops.lt/kaunas/index.html#stop/1062,,
15820,,"Vainatrakio sankryža A",,54.79199,23.96550,https://www.stops.lt/kaunas/index.html#stop/893,,
2987,,"Šiltnamiai",,54.93836,24.10546,https://www.stops.lt/kaunas/index.html#stop/388,,
16800,,"Hollister",,54.94796,24.05690,https://www.stops.lt/kaunas/index.html#stop/1113,,
5213,,"Kauno oro uostas",,54.96728,24.07238,https://www.stops.lt/kaunas/index.html#stop/734,,
14773,,"Oro uosto g. A",,54.97122,24.06967,https://www.stops.lt/kaunas/index.html#stop/789,,
14426,,"Oro uosto g. B",,54.97129,24.06924,https://www.stops.lt/kaunas/index.html#stop/768,,
16934,,"Sankryža A",,54.82585,23.84855,https://www.stops.lt/kaunas/index.html#stop/1052,,
17365,,"Pakalnės g. A",,54.93335,23.77682,https://www.stops.lt/kaunas/index.html#stop/1100,,
17364,,"Pakalnės g. B",,54.93332,23.77705,https://www.stops.lt/kaunas/index.html#stop/1099,,
17368,,"Raudondvario kapinės A",,54.93707,23.76375,https://www.stops.lt/kaunas/index.html#stop/1102,,
17367,,"Raudondvario kapinės B",,54.93723,23.76350,https://www.stops.lt/kaunas/index.html#stop/1101,,
14553,,"Akademijos miestelis B",,54.89580,23.82433,https://www.stops.lt/kaunas/index.html#stop/779,,
16904,,"Pilies g.",,54.94308,23.77652,https://www.stops.lt/kaunas/index.html#stop/996,,
17069,,"Hegelmann",,54.96638,23.86507,https://www.stops.lt/kaunas/index.html#stop/1085,,
17229,,"Didžioji g. C",,54.94313,23.77436,https://www.stops.lt/kaunas/index.html#stop/1091,,
2996,,"Gimnazija A",,54.94061,23.77399,https://www.stops.lt/kaunas/index.html#stop/269,,
2995,,"Gimnazija B",,54.94110,23.77437,https://www.stops.lt/kaunas/index.html#stop/291,,
2899,,"Raudondvario medelynas A",,54.93310,23.78553,https://www.stops.lt/kaunas/index.html#stop/621,,
2898,,"Raudondvario medelynas B",,54.93398,23.78518,https://www.stops.lt/kaunas/index.html#stop/620,,
2994,,"Raudondvaris A",,54.93718,23.78076,https://www.stops.lt/kaunas/index.html#stop/297,,
2993,,"Raudondvaris B",,54.93779,23.77870,https://www.stops.lt/kaunas/index.html#stop/330,,
2998,,"Saulėtekio g. A",,54.94449,23.77137,https://www.stops.lt/kaunas/index.html#stop/267,,
2997,,"Saulėtekio g. B",,54.94415,23.77181,https://www.stops.lt/kaunas/index.html#stop/268,,
2999,,"Svarstyklės B",,54.94809,23.76269,https://www.stops.lt/kaunas/index.html#stop/266,,
2911,,"Rokų seniūnija A",,54.82978,23.94781,https://www.stops.lt/kaunas/index.html#stop/633,,
2974,,"Rokų seniūnija B",,54.83007,23.94757,https://www.stops.lt/kaunas/index.html#stop/696,,
10727,,"Akademijos miestelis A",,54.89468,23.82319,https://www.stops.lt/kaunas/index.html#stop/749,,
15308,,"Varžupio g. A",,54.89298,23.81461,https://www.stops.lt/kaunas/index.html#stop/836,,
15307,,"Varžupio g. B",,54.89238,23.81231,https://www.stops.lt/kaunas/index.html#stop/835,,
16888,,"1-ieji Sergeičikai A",,54.94607,24.06114,https://www.stops.lt/kaunas/index.html#stop/991,,
16869,,"1-ieji Sergeičikai B",,54.94533,24.06139,https://www.stops.lt/kaunas/index.html#stop/984,,
16885,,"2-ieji Sergeičikai A",,54.93666,24.06957,https://www.stops.lt/kaunas/index.html#stop/990,,
16872,,"2-ieji Sergeičikai B",,54.93720,24.06883,https://www.stops.lt/kaunas/index.html#stop/985,,
16884,,"Lelijų g. A",,54.93205,24.08686,https://www.stops.lt/kaunas/index.html#stop/989,,
16873,,"Lelijų g. B",,54.93157,24.08813,https://www.stops.lt/kaunas/index.html#stop/986,,
15983,,"1-ojo forto g. A",,54.88381,23.86611,https://www.stops.lt/kaunas/index.html#stop/902,,
15982,,"1-ojo forto g. B",,54.88431,23.86666,https://www.stops.lt/kaunas/index.html#stop/901,,
15408,,"Kauno šiltadaržiai A",,54.88826,23.84853,https://www.stops.lt/kaunas/index.html#stop/848,,
2442,,"Kauno šiltadaržiai B",,54.88851,23.84870,https://www.stops.lt/kaunas/index.html#stop/122,,
15309,,"Noreikiškės A",,54.88765,23.84320,https://www.stops.lt/kaunas/index.html#stop/837,,
15310,,"Noreikiškės B",,54.88792,23.84200,https://www.stops.lt/kaunas/index.html#stop/838,,
15471,,"Pakalnės g. C",,54.88059,23.86759,https://www.stops.lt/kaunas/index.html#stop/842,,
15401,,"Stirnų g. A",,54.88817,23.86130,https://www.stops.lt/kaunas/index.html#stop/845,,
15402,,"Stirnų g. B",,54.88859,23.86042,https://www.stops.lt/kaunas/index.html#stop/846,,
2932,,"Gyvenvietė A",,54.87025,24.07838,https://www.stops.lt/kaunas/index.html#stop/654,,
2931,,"Gyvenvietė B",,54.87004,24.07967,https://www.stops.lt/kaunas/index.html#stop/653,,
2988,,"J. Biliūno g. A",,54.86452,24.09233,https://www.stops.lt/kaunas/index.html#stop/387,,
2989,,"J. Biliūno g. B",,54.86404,24.09309,https://www.stops.lt/kaunas/index.html#stop/384,,
2934,,"Malūnas C",,54.86812,24.08539,https://www.stops.lt/kaunas/index.html#stop/656,,
2933,,"Malūnas D",,54.86756,24.08619,https://www.stops.lt/kaunas/index.html#stop/655,,
2990,,"Seniūnija A",,54.86223,24.09682,https://www.stops.lt/kaunas/index.html#stop/379,,
2991,,"Seniūnija B",,54.86169,24.09761,https://www.stops.lt/kaunas/index.html#stop/353,,
2992,,"Šlienava",,54.86081,24.10838,https://www.stops.lt/kaunas/index.html#stop/348,,
2964,,"A. Mitkaus pagrindinė mokykla A",,54.81578,23.87544,https://www.stops.lt/kaunas/index.html#stop/686,,
2963,,"A. Mitkaus pagrindinė mokykla B",,54.81570,23.87556,https://www.stops.lt/kaunas/index.html#stop/685,,
2965,,"Rinkūnai",,54.81592,23.88428,https://www.stops.lt/kaunas/index.html#stop/687,,
2441,,"VDU Žemės ūkio akademija",,54.89364,23.83487,https://www.stops.lt/kaunas/index.html#stop/120,,
16148,,"LEZ1",,54.94222,24.00768,https://www.stops.lt/kaunas/index.html#stop/916,,
16149,,"LEZ2",,54.94067,24.00993,https://www.stops.lt/kaunas/index.html#stop/917,,
16141,,"LEZ3",,54.93892,24.01219,https://www.stops.lt/kaunas/index.html#stop/915,,
4826,,"Seniava A",,54.85137,23.90708,https://www.stops.lt/kaunas/index.html#stop/857,,
15576,,"Seniava B",,54.85146,23.90711,https://www.stops.lt/kaunas/index.html#stop/858,,
15582,,"Titnago g. A",,54.85061,23.91376,https://www.stops.lt/kaunas/index.html#stop/860,,
15581,,"Titnago g. B",,54.85044,23.91577,https://www.stops.lt/kaunas/index.html#stop/859,,
17385,,"Naujosios Karmėlavos kapinės A",,54.97458,24.04509,https://www.stops.lt/kaunas/index.html#stop/1107,,
16445,,"Naujosios Karmėlavos kapinės B",,54.97449,24.04445,https://www.stops.lt/kaunas/index.html#stop/957,,
16444,,"Pilėnų g. A",,54.97539,24.03768,https://www.stops.lt/kaunas/index.html#stop/956,,
16443,,"Pilėnų g. B",,54.97584,24.03802,https://www.stops.lt/kaunas/index.html#stop/955,,
5207,,"Senosios Karmėlavos kapinės",,54.97171,24.03798,https://www.stops.lt/kaunas/index.html#stop/733,,
14686,,"Tylos g. A",,54.97417,24.05062,https://www.stops.lt/kaunas/index.html#stop/1106,,
17379,,"Tylos g. B",,54.97399,24.05106,https://www.stops.lt/kaunas/index.html#stop/1105,,
2439,,"Universiteto bendrabučiai A",,54.89258,23.82870,https://www.stops.lt/kaunas/index.html#stop/118,,
2438,,"Universiteto bendrabučiai B",,54.89285,23.82858,https://www.stops.lt/kaunas/index.html#stop/117,,
2440,,"Universiteto g.",,54.89145,23.83471,https://www.stops.lt/kaunas/index.html#stop/119,,
17377,,"Vakarinė g.",,54.97302,24.05493,https://www.stops.lt/kaunas/index.html#stop/1104,,
17376,,"Vakarinė g. išlaipinimas",,54.97305,24.05470,https://www.stops.lt/kaunas/index.html#stop/1103,,
17290,,"Voškoniai A",,54.98758,23.94444,https://www.stops.lt/kaunas/index.html#stop/1094,,
16974,,"Romaškiai A",,54.97930,23.93433,https://www.stops.lt/kaunas/index.html#stop/1058,,
16965,,"Romaškiai B",,54.98011,23.93608,https://www.stops.lt/kaunas/index.html#stop/1054,,
16966,,"Voškoniai B",,54.98851,23.94508,https://www.stops.lt/kaunas/index.html#stop/1055,,
17078,,"Tvenkinys",,54.95144,23.77073,https://www.stops.lt/kaunas/index.html#stop/1087,,
16925,,"Vejuonos g.",,54.95077,23.76306,https://www.stops.lt/kaunas/index.html#stop/1046,,
15877,,"Rasos g.",,54.97720,24.08056,https://www.stops.lt/kaunas/index.html#stop/899,,
2962,,"Biblioteka C",,54.81753,23.87377,https://www.stops.lt/kaunas/index.html#stop/684,,
2961,,"Biblioteka D",,54.81703,23.87362,https://www.stops.lt/kaunas/index.html#stop/683,,
2960,,"Garliava A",,54.82218,23.87332,https://www.stops.lt/kaunas/index.html#stop/682,,
2959,,"Garliava B",,54.82143,23.87317,https://www.stops.lt/kaunas/index.html#stop/681,,
2953,,"Jonučiai A",,54.83605,23.87697,https://www.stops.lt/kaunas/index.html#stop/675,,
2952,,"Jonučiai B",,54.83556,23.87652,https://www.stops.lt/kaunas/index.html#stop/674,,
2951,,"Ramybės g. A",,54.84266,23.87947,https://www.stops.lt/kaunas/index.html#stop/673,,
2950,,"Ramybės g. B",,54.84128,23.87866,https://www.stops.lt/kaunas/index.html#stop/672,,
2958,,"Tulpių g. A",,54.82810,23.87402,https://www.stops.lt/kaunas/index.html#stop/680,,
2957,,"Tulpių g. B",,54.82757,23.87355,https://www.stops.lt/kaunas/index.html#stop/679,,
2954,,"Vienybės g. A",,54.83320,23.87587,https://www.stops.lt/kaunas/index.html#stop/676,,
2955,,"Vienybės g. B",,54.83205,23.87522,https://www.stops.lt/kaunas/index.html#stop/677,,
16968,,"Voškonių aikštelė",,54.99101,23.94593,https://www.stops.lt/kaunas/index.html#stop/1056,,
16919,,"Žalgirio g. -1",,54.94919,23.77861,https://www.stops.lt/kaunas/index.html#stop/1024,,
16920,,"Žalgirio g. -2",,54.95008,23.78314,https://www.stops.lt/kaunas/index.html#stop/1027,,
2938,,"Sodininkų bendrija Kaspinas A",,54.87977,24.07924,https://www.stops.lt/kaunas/index.html#stop/660,,
2937,,"Sodininkų bendrija Kaspinas B",,54.87823,24.07779,https://www.stops.lt/kaunas/index.html#stop/659,,
2936,,"Sodininkų bendrija Šaltinis A",,54.87463,24.07305,https://www.stops.lt/kaunas/index.html#stop/658,,
2935,,"Sodininkų bendrija Šaltinis B",,54.87493,24.07367,https://www.stops.lt/kaunas/index.html#stop/657,,
2939,,"Žiegždriai",,54.88564,24.09141,https://www.stops.lt/kaunas/index.html#stop/661,,
2930,,"Žiegždrių kryžkelė A",,54.86937,24.06658,https://www.stops.lt/kaunas/index.html#stop/652,,
2929,,"Žiegždrių kryžkelė B",,54.86964,24.06715,https://www.stops.lt/kaunas/index.html#stop/651,,
17265,,"Giraitės g. A",,54.95972,24.03090,https://www.stops.lt/kaunas/index.html#stop/1093,,
17264,,"Giraitės g. B",,54.95897,24.03151,https://www.stops.lt/kaunas/index.html#stop/1092,,
14320,,"Breslaujos g. A",,54.89691,23.95662,https://www.stops.lt/kaunas/index.html#stop/753,,
2662,,"Breslaujos g. B",,54.89662,23.95643,https://www.stops.lt/kaunas/index.html#stop/371,,
2657,,"6-asis fortas A",,54.90139,23.97273,https://www.stops.lt/kaunas/index.html#stop/366,,
2656,,"6-asis fortas B",,54.90114,23.97219,https://www.stops.lt/kaunas/index.html#stop/365,,
2659,,"Pašilės g. A",,54.90091,23.96656,https://www.stops.lt/kaunas/index.html#stop/368,,
2658,,"Pašilės g. B",,54.90065,23.96673,https://www.stops.lt/kaunas/index.html#stop/367,,
2660,,"Slėnio g. A",,54.89822,23.95772,https://www.stops.lt/kaunas/index.html#stop/369,,
2661,,"Slėnio g. B",,54.89777,23.95717,https://www.stops.lt/kaunas/index.html#stop/370,,
2689,,"Karių kapinės A",,54.87912,23.94904,https://www.stops.lt/kaunas/index.html#stop/408,,
2688,,"Karių kapinės B",,54.88025,23.94869,https://www.stops.lt/kaunas/index.html#stop/407,,
2697,,"Alsėdžių g. A",,54.89067,23.94771,https://www.stops.lt/kaunas/index.html#stop/416,,
14425,,"Alsėdžių g. B",,54.89106,23.94849,https://www.stops.lt/kaunas/index.html#stop/767,,
2696,,"Ašmenos g.",,54.89013,23.94567,https://www.stops.lt/kaunas/index.html#stop/415,,
2698,,"Jašiūnų g.",,54.88731,23.94032,https://www.stops.lt/kaunas/index.html#stop/417,,
2695,,"Kaišiadorių g.",,54.89221,23.95182,https://www.stops.lt/kaunas/index.html#stop/414,,
2687,,"Kauno ligoninė B",,54.87878,23.94568,https://www.stops.lt/kaunas/index.html#stop/406,,
14550,,"Ašmenos 1-oji g. A",,54.88403,23.95060,https://www.stops.lt/kaunas/index.html#stop/777,,
14551,,"Ašmenos 1-oji g. B",,54.88386,23.95011,https://www.stops.lt/kaunas/index.html#stop/778,,
2692,,"Prancūzų g. A",,54.89206,23.95460,https://www.stops.lt/kaunas/index.html#stop/411,,
2693,,"Prancūzų g. B",,54.89232,23.95441,https://www.stops.lt/kaunas/index.html#stop/412,,
2694,,"Verkių g.",,54.89272,23.95364,https://www.stops.lt/kaunas/index.html#stop/413,,
2691,,"Žarėnų g. A",,54.88673,23.95352,https://www.stops.lt/kaunas/index.html#stop/410,,
2690,,"Žarėnų g. B",,54.88647,23.95276,https://www.stops.lt/kaunas/index.html#stop/409,,
5100,,"Bitininkų g. A",,54.87512,23.89811,https://www.stops.lt/kaunas/index.html#stop/707,,
5099,,"Bitininkų g. B",,54.87515,23.89418,https://www.stops.lt/kaunas/index.html#stop/706,,
14919,,"Europos pr. C",,54.87478,23.89248,https://www.stops.lt/kaunas/index.html#stop/83,,
14543,,"M. K. Čiurlionio tiltas A",,54.88046,23.92240,https://www.stops.lt/kaunas/index.html#stop/775,,
14542,,"M. K. Čiurlionio tiltas B",,54.88035,23.92179,https://www.stops.lt/kaunas/index.html#stop/774,,
14546,,"M. K. Čiurlionio tiltas E",,54.87977,23.92296,https://www.stops.lt/kaunas/index.html#stop/776,,
4927,,"Ž. E. Žilibero g. A",,54.87526,23.90480,https://www.stops.lt/kaunas/index.html#stop/232,,
4926,,"Ž. E. Žilibero g. B",,54.87562,23.90243,https://www.stops.lt/kaunas/index.html#stop/233,,
2484,,"Elevatorius A",,54.88604,23.91229,https://www.stops.lt/kaunas/index.html#stop/170,,
2480,,"H. ir O. Minkovskių g. A",,54.89124,23.89741,https://www.stops.lt/kaunas/index.html#stop/166,,
2488,,"M. K. Čiurlionio tiltas C",,54.88152,23.92261,https://www.stops.lt/kaunas/index.html#stop/174,,
2489,,"M. K. Čiurlionio tiltas D",,54.88166,23.92150,https://www.stops.lt/kaunas/index.html#stop/175,,
2436,,"Veiverių g. A",,54.89267,23.89200,https://www.stops.lt/kaunas/index.html#stop/115,,
5113,,"Veiverių g. B",,54.89257,23.89208,https://www.stops.lt/kaunas/index.html#stop/720,,
16169,,"Vilties g. B",,54.87174,23.91565,https://www.stops.lt/kaunas/index.html#stop/161,,
2493,,"Freda A",,54.87111,23.92504,https://www.stops.lt/kaunas/index.html#stop/179,,
2494,,"Freda B",,54.87095,23.92488,https://www.stops.lt/kaunas/index.html#stop/180,,
2495,,"Geležinkelio pervaža A",,54.86387,23.92574,https://www.stops.lt/kaunas/index.html#stop/181,,
2496,,"Geležinkelio pervaža B",,54.86380,23.92556,https://www.stops.lt/kaunas/index.html#stop/182,,
2499,,"Jiesia A",,54.85845,23.92923,https://www.stops.lt/kaunas/index.html#stop/189,,
2500,,"Jiesia B",,54.85879,23.92849,https://www.stops.lt/kaunas/index.html#stop/190,,
2490,,"Piliakalnio g. A",,54.87437,23.92441,https://www.stops.lt/kaunas/index.html#stop/176,,
2491,,"Piliakalnio g. B",,54.87535,23.92320,https://www.stops.lt/kaunas/index.html#stop/177,,
2465,,"2-asis fortas A",,54.85716,23.88517,https://www.stops.lt/kaunas/index.html#stop/147,,
2947,,"2-asis fortas B",,54.85606,23.88406,https://www.stops.lt/kaunas/index.html#stop/669,,
2450,,"Aleksoto poliklinika A",,54.88597,23.89564,https://www.stops.lt/kaunas/index.html#stop/131,,
2451,,"Aleksoto poliklinika B",,54.88517,23.89499,https://www.stops.lt/kaunas/index.html#stop/132,,
2452,,"Europos pr. A",,54.87553,23.89181,https://www.stops.lt/kaunas/index.html#stop/133,,
2453,,"Europos pr. B",,54.87423,23.89082,https://www.stops.lt/kaunas/index.html#stop/134,,
2456,,"Julijanavos g. A",,54.87001,23.88964,https://www.stops.lt/kaunas/index.html#stop/137,,
2457,,"Julijanavos g. B",,54.86829,23.88863,https://www.stops.lt/kaunas/index.html#stop/138,,
2463,,"Lazdijų g. A",,54.86366,23.88728,https://www.stops.lt/kaunas/index.html#stop/145,,
2464,,"Lazdijų g. B",,54.86318,23.88673,https://www.stops.lt/kaunas/index.html#stop/146,,
2454,,"S.Dariaus ir S.Girėno aerodromas",,54.87695,23.89185,https://www.stops.lt/kaunas/index.html#stop/135,,
6193,,"Vytauto Didžiojo tiltas A",,54.89253,23.88934,https://www.stops.lt/kaunas/index.html#stop/748,,
2478,,"Freda C",,54.87517,23.91402,https://www.stops.lt/kaunas/index.html#stop/772,,
2949,,"K. Dulksnio g. A",,54.84788,23.88134,https://www.stops.lt/kaunas/index.html#stop/671,,
2948,,"K. Dulksnio g. B",,54.84722,23.88082,https://www.stops.lt/kaunas/index.html#stop/670,,
4695,,"Sodai A",,54.85023,23.88226,https://www.stops.lt/kaunas/index.html#stop/236,,
4694,,"Sodai B",,54.84962,23.88175,https://www.stops.lt/kaunas/index.html#stop/231,,
2584,,"Amaliai A",,54.89805,24.01519,https://www.stops.lt/kaunas/index.html#stop/288,,
2583,,"Amaliai B",,54.89821,24.01594,https://www.stops.lt/kaunas/index.html#stop/287,,
2582,,"Sodai C",,54.90034,24.01933,https://www.stops.lt/kaunas/index.html#stop/286,,
2581,,"Sodai D",,54.90062,24.02003,https://www.stops.lt/kaunas/index.html#stop/285,,
2579,,"Viržių g. A",,54.90252,24.02343,https://www.stops.lt/kaunas/index.html#stop/347,,
2578,,"Viržių g. B",,54.90245,24.02367,https://www.stops.lt/kaunas/index.html#stop/346,,
2586,,"Kauno keliai A",,54.89417,24.00761,https://www.stops.lt/kaunas/index.html#stop/290,,
2585,,"Kauno keliai B",,54.89407,24.00797,https://www.stops.lt/kaunas/index.html#stop/289,,
14582,,"Avilių g.",,54.86338,23.89792,https://www.stops.lt/kaunas/index.html#stop/781,,
2479,,"Vinčų g. A",,54.87429,23.91450,https://www.stops.lt/kaunas/index.html#stop/164,,
14520,,"Vinčų g. B",,54.87508,23.91225,https://www.stops.lt/kaunas/index.html#stop/163,,
2474,,"Botanikos sodas A",,54.86999,23.91459,https://www.stops.lt/kaunas/index.html#stop/159,,
2475,,"Botanikos sodas B",,54.86956,23.91411,https://www.stops.lt/kaunas/index.html#stop/160,,
2472,,"J. Pabrėžos g. A",,54.86658,23.91111,https://www.stops.lt/kaunas/index.html#stop/157,,
2473,,"J. Pabrėžos g. B",,54.86533,23.91072,https://www.stops.lt/kaunas/index.html#stop/158,,
2470,,"Lekėčių g. A",,54.86080,23.91024,https://www.stops.lt/kaunas/index.html#stop/155,,
2471,,"Lekėčių g. B",,54.86112,23.91014,https://www.stops.lt/kaunas/index.html#stop/156,,
2468,,"Gvazdikų g. A",,54.85724,23.90557,https://www.stops.lt/kaunas/index.html#stop/152,,
2469,,"Gvazdikų g. B",,54.85698,23.90571,https://www.stops.lt/kaunas/index.html#stop/153,,
5035,,"Kiečių g. A",,54.86651,23.89104,https://www.stops.lt/kaunas/index.html#stop/700,,
5036,,"Kiečių g. B",,54.86625,23.89120,https://www.stops.lt/kaunas/index.html#stop/701,,
2466,,"Seniavos pl. A",,54.86314,23.89710,https://www.stops.lt/kaunas/index.html#stop/150,,
2467,,"Seniavos pl. B",,54.86261,23.89779,https://www.stops.lt/kaunas/index.html#stop/151,,
2847,,"E. Ožeškienės g.",,54.89801,23.90242,https://www.stops.lt/kaunas/index.html#stop/567,,
2852,,"Gedimino g. B",,54.89872,23.91988,https://www.stops.lt/kaunas/index.html#stop/572,,
2850,,"L. Sapiegos g.",,54.89924,23.90686,https://www.stops.lt/kaunas/index.html#stop/570,,
2851,,"Studentų skveras",,54.89895,23.91437,https://www.stops.lt/kaunas/index.html#stop/571,,
2855,,"Gedimino g. A",,54.89541,23.92223,https://www.stops.lt/kaunas/index.html#stop/575,,
2853,,"Muzikinis teatras",,54.89607,23.90623,https://www.stops.lt/kaunas/index.html#stop/573,,
2854,,"Nacionalinis Kauno dramos teatras",,54.89578,23.91301,https://www.stops.lt/kaunas/index.html#stop/574,,
2751,,"Dainava A",,54.91153,23.97951,https://www.stops.lt/kaunas/index.html#stop/470,,
2750,,"Dainava B",,54.91132,23.98008,https://www.stops.lt/kaunas/index.html#stop/469,,
2752,,"Draugystės žiedas D",,54.91156,23.97578,https://www.stops.lt/kaunas/index.html#stop/471,,
2732,,"Draugystės parkas C",,54.91633,23.97349,https://www.stops.lt/kaunas/index.html#stop/451,,
2733,,"Draugystės parkas D",,54.91591,23.97345,https://www.stops.lt/kaunas/index.html#stop/452,,
2726,,"Turgavietė A",,54.91974,23.96947,https://www.stops.lt/kaunas/index.html#stop/445,,
2727,,"Turgavietė B",,54.92106,23.96717,https://www.stops.lt/kaunas/index.html#stop/446,,
2639,,"Biruliškės A",,54.92989,23.99430,https://www.stops.lt/kaunas/index.html#stop/282,,
2640,,"Biruliškės B",,54.92990,23.99332,https://www.stops.lt/kaunas/index.html#stop/283,,
2647,,"Muravos pievos A",,54.92787,23.97698,https://www.stops.lt/kaunas/index.html#stop/356,,
2648,,"Muravos pievos B",,54.92834,23.97844,https://www.stops.lt/kaunas/index.html#stop/357,,
2642,,"Parduotuvė A",,54.93067,23.98654,https://www.stops.lt/kaunas/index.html#stop/350,,
2641,,"Parduotuvė B",,54.93054,23.98777,https://www.stops.lt/kaunas/index.html#stop/349,,
4370,,"Partizanų g. A",,54.92648,23.99924,https://www.stops.lt/kaunas/index.html#stop/6,,
4371,,"Partizanų g. B",,54.92604,23.99871,https://www.stops.lt/kaunas/index.html#stop/8,,
4419,,"Partizanų g. C",,54.92658,23.99897,https://www.stops.lt/kaunas/index.html#stop/186,,
2651,,"Kauno kolegija A",,54.91951,23.98334,https://www.stops.lt/kaunas/index.html#stop/360,,
2652,,"Kauno kolegija B",,54.92135,23.98100,https://www.stops.lt/kaunas/index.html#stop/361,,
2650,,"Pramonės pr. A",,54.92401,23.97828,https://www.stops.lt/kaunas/index.html#stop/359,,
2649,,"Pramonės pr. B",,54.92525,23.97604,https://www.stops.lt/kaunas/index.html#stop/358,,
2653,,"Taikos pr. D",,54.91762,23.98366,https://www.stops.lt/kaunas/index.html#stop/362,,
5049,,"Urmas A",,54.91483,23.98526,https://www.stops.lt/kaunas/index.html#stop/703,,
2622,,"Urmas B",,54.91537,23.98573,https://www.stops.lt/kaunas/index.html#stop/328,,
2734,,"Draugystės žiedas A",,54.91374,23.97556,https://www.stops.lt/kaunas/index.html#stop/453,,
2735,,"Draugystės žiedas B",,54.91391,23.97720,https://www.stops.lt/kaunas/index.html#stop/454,,
2654,,"Trys berželiai A",,54.91534,23.98015,https://www.stops.lt/kaunas/index.html#stop/363,,
2655,,"Trys berželiai B",,54.91499,23.98007,https://www.stops.lt/kaunas/index.html#stop/364,,
2739,,"Birželio 23-iosios g. A",,54.91524,23.95924,https://www.stops.lt/kaunas/index.html#stop/458,,
2738,,"Birželio 23-iosios g. B",,54.91498,23.95846,https://www.stops.lt/kaunas/index.html#stop/457,,
2737,,"Draugystės parkas A",,54.91656,23.96531,https://www.stops.lt/kaunas/index.html#stop/456,,
2736,,"Draugystės parkas B",,54.91630,23.96553,https://www.stops.lt/kaunas/index.html#stop/455,,
2645,,"Kauno saulėtekis A",,54.92495,23.98382,https://www.stops.lt/kaunas/index.html#stop/354,,
2646,,"Kauno saulėtekis B",,54.92445,23.98293,https://www.stops.lt/kaunas/index.html#stop/355,,
2729,,"Kovo 11-osios g.",,54.91964,23.97206,https://www.stops.lt/kaunas/index.html#stop/448,,
2728,,"Rėda",,54.91827,23.96884,https://www.stops.lt/kaunas/index.html#stop/447,,
2643,,"Technologijų mokymo centras A",,54.92554,23.99306,https://www.stops.lt/kaunas/index.html#stop/351,,
2644,,"Technologijų mokymo centras B",,54.92532,23.99419,https://www.stops.lt/kaunas/index.html#stop/352,,
2731,,"V. Krėvės pr. A",,54.92152,23.97613,https://www.stops.lt/kaunas/index.html#stop/450,,
2730,,"V. Krėvės pr. B",,54.92061,23.97455,https://www.stops.lt/kaunas/index.html#stop/449,,
14795,,"Pėsčiųjų tiltas A",,54.93398,23.92958,https://www.stops.lt/kaunas/index.html#stop/790,,
4383,,"Pilėnų progimnazija A",,54.93389,23.93359,https://www.stops.lt/kaunas/index.html#stop/121,,
4382,,"Pilėnų progimnazija B",,54.93376,23.93446,https://www.stops.lt/kaunas/index.html#stop/124,,
2796,,"Šiaurės pr. A",,54.92942,23.92714,https://www.stops.lt/kaunas/index.html#stop/515,,
4381,,"Šiaurės pr. B",,54.93049,23.92688,https://www.stops.lt/kaunas/index.html#stop/697,,
2786,,"Islandijos pl. A",,54.93345,23.94402,https://www.stops.lt/kaunas/index.html#stop/505,,
2791,,"Čečėnijos aikštė A",,54.92545,23.94754,https://www.stops.lt/kaunas/index.html#stop/510,,
2790,,"Čečėnijos aikštė B",,54.92579,23.94823,https://www.stops.lt/kaunas/index.html#stop/509,,
2704,,"Pakraščio g. A",,54.92487,23.96102,https://www.stops.lt/kaunas/index.html#stop/423,,
2703,,"Pakraščio g. B",,54.92443,23.96239,https://www.stops.lt/kaunas/index.html#stop/422,,
2782,,"V. Landsbergio-Žemkalnio g. A",,54.92623,23.95598,https://www.stops.lt/kaunas/index.html#stop/501,,
2783,,"V. Landsbergio-Žemkalnio g. B",,54.92644,23.95390,https://www.stops.lt/kaunas/index.html#stop/502,,
2789,,"Eiguliai A",,54.92761,23.94266,https://www.stops.lt/kaunas/index.html#stop/508,,
2788,,"Eiguliai B",,54.92822,23.94310,https://www.stops.lt/kaunas/index.html#stop/507,,
2787,,"S. Žukausko g. C",,54.92997,23.94265,https://www.stops.lt/kaunas/index.html#stop/506,,
2793,,"Ašigalio g. A",,54.93152,23.93708,https://www.stops.lt/kaunas/index.html#stop/512,,
2792,,"Ašigalio g. B",,54.93118,23.93666,https://www.stops.lt/kaunas/index.html#stop/511,,
2785,,"K. Škirpos g.",,54.93119,23.94522,https://www.stops.lt/kaunas/index.html#stop/504,,
2778,,"Martyno Mažvydo progimnazija A",,54.93116,23.95461,https://www.stops.lt/kaunas/index.html#stop/497,,
2777,,"Martyno Mažvydo progimnazija B",,54.93086,23.95702,https://www.stops.lt/kaunas/index.html#stop/496,,
2784,,"P. Plechavičiaus g. A",,54.93140,23.94842,https://www.stops.lt/kaunas/index.html#stop/503,,
2879,,"P. Plechavičiaus g. B",,54.93104,23.94974,https://www.stops.lt/kaunas/index.html#stop/601,,
14424,,"S. Žukausko g. A",,54.93161,23.94081,https://www.stops.lt/kaunas/index.html#stop/766,,
2776,,"Šiaurinė A",,54.93097,23.96394,https://www.stops.lt/kaunas/index.html#stop/495,,
2775,,"Šiaurinė B",,54.93063,23.96535,https://www.stops.lt/kaunas/index.html#stop/494,,
2795,,"Ukmergės g. A",,54.92983,23.93099,https://www.stops.lt/kaunas/index.html#stop/514,,
2794,,"Ukmergės g. B",,54.92991,23.93222,https://www.stops.lt/kaunas/index.html#stop/513,,
2802,,"Akių klinika A",,54.91727,23.92611,https://www.stops.lt/kaunas/index.html#stop/521,,
2801,,"Akių klinika B",,54.91715,23.92653,https://www.stops.lt/kaunas/index.html#stop/520,,
2798,,"Topolis A",,54.92602,23.92862,https://www.stops.lt/kaunas/index.html#stop/517,,
2797,,"Topolis B",,54.92541,23.92895,https://www.stops.lt/kaunas/index.html#stop/516,,
2800,,"Žeimenos g. A",,54.92260,23.92812,https://www.stops.lt/kaunas/index.html#stop/519,,
2799,,"Žeimenos g. B",,54.92241,23.92849,https://www.stops.lt/kaunas/index.html#stop/518,,
2779,,"Martyno Mažvydo progimnazija C",,54.92993,23.95536,https://www.stops.lt/kaunas/index.html#stop/498,,
2780,,"V. Landsbergio-Žemkalnio g. D",,54.92706,23.95532,https://www.stops.lt/kaunas/index.html#stop/499,,
2670,,"Kaunakiemio g.",,54.88556,23.92516,https://www.stops.lt/kaunas/index.html#stop/380,,
2669,,"Geležinkelio stotis C",,54.88786,23.93310,https://www.stops.lt/kaunas/index.html#stop/378,,
2668,,"Geležinkelio stotis D",,54.88729,23.93227,https://www.stops.lt/kaunas/index.html#stop/377,,
2664,,"Dainų slėnis A",,54.89397,23.94298,https://www.stops.lt/kaunas/index.html#stop/373,,
2663,,"Dainų slėnis B",,54.89392,23.94332,https://www.stops.lt/kaunas/index.html#stop/372,,
2665,,"Viadukas A",,54.89074,23.93913,https://www.stops.lt/kaunas/index.html#stop/374,,
2666,,"Viadukas B",,54.89064,23.93957,https://www.stops.lt/kaunas/index.html#stop/375,,
2860,,"Autobusų stotis A",,54.88917,23.92744,https://www.stops.lt/kaunas/index.html#stop/580,,
2861,,"Autobusų stotis B",,54.88910,23.92723,https://www.stops.lt/kaunas/index.html#stop/581,,
2667,,"Geležinkelio stotis A",,54.88740,23.93028,https://www.stops.lt/kaunas/index.html#stop/376,,
2862,,"Geležinkelio stotis B",,54.88798,23.92892,https://www.stops.lt/kaunas/index.html#stop/582,,
14349,,"Griunvaldo g. A",,54.89229,23.92507,https://www.stops.lt/kaunas/index.html#stop/761,,
2859,,"Griunvaldo g. B",,54.89162,23.92477,https://www.stops.lt/kaunas/index.html#stop/579,,
2858,,"Kęstučio g. A",,54.89591,23.92538,https://www.stops.lt/kaunas/index.html#stop/578,,
2856,,"Kęstučio g. B",,54.89552,23.92498,https://www.stops.lt/kaunas/index.html#stop/576,,
2762,,"Studentų g. A",,54.90724,23.95224,https://www.stops.lt/kaunas/index.html#stop/481,,
2761,,"Studentų g. B",,54.90823,23.95390,https://www.stops.lt/kaunas/index.html#stop/480,,
2760,,"Taikos pr. A",,54.91019,23.95577,https://www.stops.lt/kaunas/index.html#stop/479,,
2759,,"Taikos pr. B",,54.91011,23.95601,https://www.stops.lt/kaunas/index.html#stop/478,,
2763,,"Zoologijos sodas B",,54.90492,23.94911,https://www.stops.lt/kaunas/index.html#stop/482,,
2757,,"Girstutis D",,54.90525,23.97563,https://www.stops.lt/kaunas/index.html#stop/476,,
2756,,"Girstutis A",,54.90465,23.97371,https://www.stops.lt/kaunas/index.html#stop/475,,
2755,,"Girstutis B",,54.90588,23.97396,https://www.stops.lt/kaunas/index.html#stop/474,,
2754,,"Kovo 11-osios gimnazija A",,54.90962,23.97367,https://www.stops.lt/kaunas/index.html#stop/473,,
2753,,"Kovo 11-osios gimnazija B",,54.91034,23.97388,https://www.stops.lt/kaunas/index.html#stop/472,,
2758,,"Vienybės g. D",,54.90264,23.97395,https://www.stops.lt/kaunas/index.html#stop/477,,
2747,,"A. Baranausko g. A",,54.91223,23.95234,https://www.stops.lt/kaunas/index.html#stop/466,,
2746,,"A. Baranausko g. B",,54.91185,23.95228,https://www.stops.lt/kaunas/index.html#stop/465,,
2748,,"Gražinos g.",,54.91173,23.94830,https://www.stops.lt/kaunas/index.html#stop/467,,
2749,,"J. Basanavičiaus al.",,54.91110,23.94409,https://www.stops.lt/kaunas/index.html#stop/468,,
2743,,"Simono Daukanto progimnazija A",,54.91194,23.96670,https://www.stops.lt/kaunas/index.html#stop/462,,
2742,,"Simono Daukanto progimnazija B",,54.91161,23.96735,https://www.stops.lt/kaunas/index.html#stop/461,,
2745,,"Vyturio gimnazija A",,54.91238,23.95883,https://www.stops.lt/kaunas/index.html#stop/464,,
2744,,"Vyturio gimnazija B",,54.91198,23.96112,https://www.stops.lt/kaunas/index.html#stop/463,,
2769,,"Gėlių Rato g. A",,54.90239,23.93977,https://www.stops.lt/kaunas/index.html#stop/488,,
2770,,"Gėlių Rato g. B",,54.90176,23.93738,https://www.stops.lt/kaunas/index.html#stop/489,,
2768,,"Minties Rato g.",,54.90294,23.94357,https://www.stops.lt/kaunas/index.html#stop/487,,
2764,,"Zoologijos sodas A",,54.90411,23.94882,https://www.stops.lt/kaunas/index.html#stop/483,,
2501,,"Jiesios kraštovaizdžio draustinis A",,54.85631,23.92662,https://www.stops.lt/kaunas/index.html#stop/191,,
2502,,"Jiesios kraštovaizdžio draustinis B",,54.85798,23.92815,https://www.stops.lt/kaunas/index.html#stop/192,,
2497,,"Kreidos g.",,54.85135,23.92707,https://www.stops.lt/kaunas/index.html#stop/187,,
5032,,"Nuokalnės g. A",,54.91258,23.92338,https://www.stops.lt/kaunas/index.html#stop/149,,
5033,,"Nuokalnės g. B",,54.91288,23.92341,https://www.stops.lt/kaunas/index.html#stop/148,,
2810,,"S. Lozoraičio g. A",,54.92399,23.94052,https://www.stops.lt/kaunas/index.html#stop/529,,
2809,,"S. Lozoraičio g. B",,54.92378,23.94078,https://www.stops.lt/kaunas/index.html#stop/528,,
2805,,"Sukilėlių pr.",,54.91409,23.92435,https://www.stops.lt/kaunas/index.html#stop/524,,
2817,,"Lietuvos inžinerijos kolegija A",,54.91290,23.92915,https://www.stops.lt/kaunas/index.html#stop/536,,
2818,,"Lietuvos inžinerijos kolegija B",,54.91321,23.92937,https://www.stops.lt/kaunas/index.html#stop/537,,
2806,,"V. Lašo g. A",,54.91362,23.92249,https://www.stops.lt/kaunas/index.html#stop/525,,
2902,,"V. Lašo g. B",,54.91427,23.92150,https://www.stops.lt/kaunas/index.html#stop/624,,
2811,,"Kalniečių g. A",,54.92308,23.93447,https://www.stops.lt/kaunas/index.html#stop/530,,
2812,,"Kalniečių g. B",,54.92296,23.93427,https://www.stops.lt/kaunas/index.html#stop/531,,
2882,,"7-asis kilometras A",,54.92076,23.81038,https://www.stops.lt/kaunas/index.html#stop/604,,
2883,,"7-asis kilometras B",,54.92094,23.80888,https://www.stops.lt/kaunas/index.html#stop/605,,
2881,,"Kaniūkai A",,54.92244,23.79532,https://www.stops.lt/kaunas/index.html#stop/603,,
2880,,"Kaniūkai B",,54.92204,23.79732,https://www.stops.lt/kaunas/index.html#stop/602,,
2420,,"Kaniūkai C",,54.91971,23.82913,https://www.stops.lt/kaunas/index.html#stop/99,,
14291,,"Kaniūkų 1-oji g.",,54.91778,23.83254,https://www.stops.lt/kaunas/index.html#stop/747,,
2887,,"Raudondvario pl. A",,54.91973,23.82776,https://www.stops.lt/kaunas/index.html#stop/609,,
2886,,"Raudondvario pl. B",,54.91967,23.82839,https://www.stops.lt/kaunas/index.html#stop/608,,
2884,,"Visvaldės g. A",,54.92049,23.81817,https://www.stops.lt/kaunas/index.html#stop/606,,
2885,,"Visvaldės g. B",,54.92071,23.81699,https://www.stops.lt/kaunas/index.html#stop/607,,
2462,,"Alšėnų g. C",,54.86616,23.87469,https://www.stops.lt/kaunas/index.html#stop/143,,
2455,,"Valstybinė mokesčių inspekcija",,54.87495,23.89011,https://www.stops.lt/kaunas/index.html#stop/136,,
2460,,"Juodelynės g. A",,54.86587,23.86432,https://www.stops.lt/kaunas/index.html#stop/141,,
2459,,"Juodelynės g. B",,54.86597,23.86435,https://www.stops.lt/kaunas/index.html#stop/140,,
2458,,"Kazliškiai",,54.86644,23.85464,https://www.stops.lt/kaunas/index.html#stop/139,,
16464,,"Alšėnų g. A",,54.86731,23.87504,https://www.stops.lt/kaunas/index.html#stop/782,,
16251,,"Alšėnų g. B",,54.86613,23.87388,https://www.stops.lt/kaunas/index.html#stop/142,,
2916,,"Kalvarijos g. A",,54.87227,23.87783,https://www.stops.lt/kaunas/index.html#stop/638,,
2917,,"Kalvarijos g. B",,54.87243,23.87769,https://www.stops.lt/kaunas/index.html#stop/639,,
5050,,"Pilviškių g. A",,54.86426,23.88292,https://www.stops.lt/kaunas/index.html#stop/704,,
2824,,"Kempingas A",,54.93463,23.91819,https://www.stops.lt/kaunas/index.html#stop/543,,
2823,,"Kempingas B",,54.93352,23.91810,https://www.stops.lt/kaunas/index.html#stop/542,,
5102,,"Šiaurės pr. F",,54.93143,23.91721,https://www.stops.lt/kaunas/index.html#stop/709,,
14798,,"Kleboniškio miško parkas B",,54.95026,23.93149,https://www.stops.lt/kaunas/index.html#stop/791,,
2878,,"Kleboniškis",,54.95530,23.95058,https://www.stops.lt/kaunas/index.html#stop/600,,
2876,,"Palapinių g. A",,54.95449,23.94266,https://www.stops.lt/kaunas/index.html#stop/598,,
2877,,"Palapinių g. B",,54.95443,23.94307,https://www.stops.lt/kaunas/index.html#stop/599,,
2822,,"Vandentiekis A",,54.94485,23.92348,https://www.stops.lt/kaunas/index.html#stop/541,,
2821,,"Vandentiekis B",,54.94497,23.92379,https://www.stops.lt/kaunas/index.html#stop/540,,
2874,,"Vasarvietės g. A",,54.95183,23.93447,https://www.stops.lt/kaunas/index.html#stop/596,,
2875,,"Vasarvietės g. B",,54.95187,23.93483,https://www.stops.lt/kaunas/index.html#stop/597,,
2417,,"Atominio bunkerio muziejus D",,54.91186,23.84433,https://www.stops.lt/kaunas/index.html#stop/96,,
5106,,"Jovarų g. A",,54.90957,23.84197,https://www.stops.lt/kaunas/index.html#stop/713,,
5105,,"Jovarų g. B",,54.90930,23.84144,https://www.stops.lt/kaunas/index.html#stop/712,,
2892,,"Lampėdžiai A",,54.91053,23.82135,https://www.stops.lt/kaunas/index.html#stop/614,,
2891,,"Vytauto g. A",,54.90886,23.82840,https://www.stops.lt/kaunas/index.html#stop/613,,
2890,,"Vytauto g. B",,54.90941,23.82618,https://www.stops.lt/kaunas/index.html#stop/612,,
2445,,"A. Gustaičio g. A",,54.89031,23.87798,https://www.stops.lt/kaunas/index.html#stop/126,,
2444,,"A. Gustaičio g. B",,54.89060,23.87745,https://www.stops.lt/kaunas/index.html#stop/125,,
2447,,"Jurgio Dobkevičiaus progimnazija A",,54.88886,23.88488,https://www.stops.lt/kaunas/index.html#stop/128,,
2446,,"Jurgio Dobkevičiaus progimnazija B",,54.88913,23.88385,https://www.stops.lt/kaunas/index.html#stop/127,,
2443,,"Meteorų g.",,54.89304,23.87085,https://www.stops.lt/kaunas/index.html#stop/123,,
2449,,"S. Dariaus ir S. Girėno g. A",,54.88736,23.89287,https://www.stops.lt/kaunas/index.html#stop/130,,
2448,,"S. Dariaus ir S. Girėno g. B",,54.88752,23.89266,https://www.stops.lt/kaunas/index.html#stop/129,,
2428,,"Biblioteka A",,54.89791,23.86663,https://www.stops.lt/kaunas/index.html#stop/107,,
2427,,"Biblioteka B",,54.89820,23.86637,https://www.stops.lt/kaunas/index.html#stop/106,,
2426,,"Bublių g. A",,54.90033,23.85702,https://www.stops.lt/kaunas/index.html#stop/105,,
2425,,"Bublių g. B",,54.90051,23.85676,https://www.stops.lt/kaunas/index.html#stop/104,,
2432,,"Laiptai A",,54.89448,23.87785,https://www.stops.lt/kaunas/index.html#stop/111,,
2431,,"Laiptai B",,54.89440,23.87780,https://www.stops.lt/kaunas/index.html#stop/110,,
2430,,"Marvelė A",,54.89660,23.87259,https://www.stops.lt/kaunas/index.html#stop/109,,
2429,,"Marvelė B",,54.89673,23.87244,https://www.stops.lt/kaunas/index.html#stop/108,,
2423,,"Žirgynas A",,54.90280,23.84477,https://www.stops.lt/kaunas/index.html#stop/102,,
2424,,"Žirgynas B",,54.90313,23.84390,https://www.stops.lt/kaunas/index.html#stop/103,,
2434,,"Vytauto Didžiojo tiltas D",,54.89268,23.88670,https://www.stops.lt/kaunas/index.html#stop/113,,
2700,,"Murava A",,54.92751,23.97008,https://www.stops.lt/kaunas/index.html#stop/419,,
2699,,"Murava B",,54.92690,23.96937,https://www.stops.lt/kaunas/index.html#stop/418,,
14288,,"Savanorių pr. A",,54.93024,23.96943,https://www.stops.lt/kaunas/index.html#stop/745,,
14290,,"Savanorių pr. B",,54.92938,23.97038,https://www.stops.lt/kaunas/index.html#stop/746,,
2547,,"Apaščios g.",,54.91884,24.04214,https://www.stops.lt/kaunas/index.html#stop/246,,
2580,,"Bruknių takas A",,54.90723,24.02313,https://www.stops.lt/kaunas/index.html#stop/284,,
5114,,"Bruknių takas B",,54.90808,24.02208,https://www.stops.lt/kaunas/index.html#stop/721,,
2574,,"Naftos bazė A",,54.91009,24.02080,https://www.stops.lt/kaunas/index.html#stop/278,,
2575,,"Naftos bazė B",,54.90991,24.02069,https://www.stops.lt/kaunas/index.html#stop/279,,
2602,,"Apuokų takas A",,54.90255,23.98811,https://www.stops.lt/kaunas/index.html#stop/308,,
2601,,"Apuokų takas B",,54.90260,23.98736,https://www.stops.lt/kaunas/index.html#stop/307,,
2600,,"Chemijos g. B",,54.89975,23.99951,https://www.stops.lt/kaunas/index.html#stop/306,,
2906,,"Medšarkių takas A",,54.90153,23.99257,https://www.stops.lt/kaunas/index.html#stop/628,,
2907,,"Medšarkių takas B",,54.90140,23.99259,https://www.stops.lt/kaunas/index.html#stop/629,,
2603,,"Policija C",,54.90412,23.98172,https://www.stops.lt/kaunas/index.html#stop/309,,
2604,,"Policija D",,54.90395,23.98143,https://www.stops.lt/kaunas/index.html#stop/310,,
2607,,"Draugystės g. A",,54.90538,24.00764,https://www.stops.lt/kaunas/index.html#stop/627,,
2905,,"Draugystės g. B",,54.90550,24.00608,https://www.stops.lt/kaunas/index.html#stop/313,,
2608,,"Draugystės g. C",,54.90504,24.00719,https://www.stops.lt/kaunas/index.html#stop/314,,
2609,,"Gamyklos A",,54.90701,24.00056,https://www.stops.lt/kaunas/index.html#stop/316,,
2610,,"Gamyklos B",,54.90675,24.00081,https://www.stops.lt/kaunas/index.html#stop/315,,
2611,,"Kauno gelžbetonis A",,54.90972,23.98855,https://www.stops.lt/kaunas/index.html#stop/317,,
2612,,"Kauno gelžbetonis B",,54.90944,23.98907,https://www.stops.lt/kaunas/index.html#stop/318,,
2619,,"Aksa A",,54.91325,24.00436,https://www.stops.lt/kaunas/index.html#stop/325,,
2618,,"Aksa B",,54.91309,24.00586,https://www.stops.lt/kaunas/index.html#stop/324,,
2621,,"Elektrėnų g. A",,54.91339,23.99781,https://www.stops.lt/kaunas/index.html#stop/327,,
2620,,"Elektrėnų g. B",,54.91327,23.99770,https://www.stops.lt/kaunas/index.html#stop/326,,
2617,,"Gaisrinė A",,54.91311,24.01075,https://www.stops.lt/kaunas/index.html#stop/323,,
2616,,"Gaisrinė B",,54.91294,24.01185,https://www.stops.lt/kaunas/index.html#stop/322,,
2634,,"Garažų g. A",,54.92143,23.99847,https://www.stops.lt/kaunas/index.html#stop/341,,
2633,,"Garažų g. B",,54.92185,23.99874,https://www.stops.lt/kaunas/index.html#stop/340,,
2632,,"Degalinė A",,54.91841,23.98857,https://www.stops.lt/kaunas/index.html#stop/339,,
2631,,"Degalinė B",,54.91829,23.98917,https://www.stops.lt/kaunas/index.html#stop/338,,
2625,,"Elektrinė A",,54.91844,24.01835,https://www.stops.lt/kaunas/index.html#stop/332,,
2624,,"Elektrinė B",,54.91798,24.01951,https://www.stops.lt/kaunas/index.html#stop/331,,
2630,,"Kauno pienas A",,54.91891,23.99496,https://www.stops.lt/kaunas/index.html#stop/337,,
2629,,"Kauno pienas B",,54.91861,23.99312,https://www.stops.lt/kaunas/index.html#stop/336,,
15632,,"Kauno pienas D",,54.91872,23.99236,https://www.stops.lt/kaunas/index.html#stop/335a,,
2569,,"Kitron-Novameta A",,54.91812,24.03318,https://www.stops.lt/kaunas/index.html#stop/273,,
2568,,"Kitron-Novameta B",,54.91783,24.03240,https://www.stops.lt/kaunas/index.html#stop/272,,
2627,,"Regitra A",,54.91867,24.00673,https://www.stops.lt/kaunas/index.html#stop/333,,
2626,,"Regitra B",,54.91832,24.00774,https://www.stops.lt/kaunas/index.html#stop/334,,
4753,,"Technikos g.",,54.90880,24.00933,https://www.stops.lt/kaunas/index.html#stop/321,,
2904,,"Garažai A",,54.92502,24.00743,https://www.stops.lt/kaunas/index.html#stop/626,,
2636,,"Garažai B",,54.92487,24.00809,https://www.stops.lt/kaunas/index.html#stop/343,,
2635,,"Kauno termofikacijos elektrinė",,54.92480,24.01570,https://www.stops.lt/kaunas/index.html#stop/342,,
2903,,"Naujasodis",,54.92515,24.00027,https://www.stops.lt/kaunas/index.html#stop/625,,
2549,,"Ateities pl. D",,54.91883,24.04255,https://www.stops.lt/kaunas/index.html#stop/281,,
2552,,"Pyvesos g. A",,54.91419,24.05006,https://www.stops.lt/kaunas/index.html#stop/251,,
2551,,"Pravienos g. C",,54.91731,24.04730,https://www.stops.lt/kaunas/index.html#stop/250,,
2572,,"Ateities pl. A",,54.90508,24.02910,https://www.stops.lt/kaunas/index.html#stop/276,,
2573,,"Ateities pl. B",,54.90488,24.02870,https://www.stops.lt/kaunas/index.html#stop/280,,
2570,,"Upytės g. C",,54.91025,24.03299,https://www.stops.lt/kaunas/index.html#stop/274,,
2571,,"Upytės g. D",,54.90931,24.03184,https://www.stops.lt/kaunas/index.html#stop/275,,
2559,,"Keramzito g. A",,54.91815,24.07340,https://www.stops.lt/kaunas/index.html#stop/259,,
2558,,"Keramzito g. B",,54.91780,24.07378,https://www.stops.lt/kaunas/index.html#stop/258,,
2555,,"Parko g. A",,54.91193,24.06084,https://www.stops.lt/kaunas/index.html#stop/254,,
2554,,"Parko g. B",,54.91221,24.06137,https://www.stops.lt/kaunas/index.html#stop/255,,
2563,,"S. Nėries muziejus A",,54.91043,24.05786,https://www.stops.lt/kaunas/index.html#stop/263,,
2562,,"S. Nėries muziejus B",,54.91063,24.05861,https://www.stops.lt/kaunas/index.html#stop/262,,
2565,,"Šilėnų g. A",,54.90750,24.05151,https://www.stops.lt/kaunas/index.html#stop/265,,
2564,,"Šilėnų g. B",,54.90836,24.05408,https://www.stops.lt/kaunas/index.html#stop/264,,
2561,,"Neveronių g. B",,54.91983,24.07660,https://www.stops.lt/kaunas/index.html#stop/261,,
2560,,"Kauno tiekimas",,54.92365,24.07307,https://www.stops.lt/kaunas/index.html#stop/260,,
4697,,"Kražantės g.",,54.91820,24.05752,https://www.stops.lt/kaunas/index.html#stop/40,,
2576,,"Naktigonės g. A",,54.90157,24.02845,https://www.stops.lt/kaunas/index.html#stop/277,,
2577,,"Naktigonės g. B",,54.90160,24.02806,https://www.stops.lt/kaunas/index.html#stop/248,,
2553,,"Palemono g.",,54.91468,24.05795,https://www.stops.lt/kaunas/index.html#stop/253,,
2567,,"Pervaža A",,54.90467,24.04004,https://www.stops.lt/kaunas/index.html#stop/271,,
2566,,"Pervaža B",,54.90409,24.03945,https://www.stops.lt/kaunas/index.html#stop/270,,
4747,,"Palemono keramika A",,54.91423,24.06504,https://www.stops.lt/kaunas/index.html#stop/19,,
2557,,"Palemono keramika B",,54.91426,24.06458,https://www.stops.lt/kaunas/index.html#stop/257,,
2556,,"Palemono keramika C",,54.91486,24.06437,https://www.stops.lt/kaunas/index.html#stop/256,,
2550,,"Pravienos g. A",,54.91779,24.04757,https://www.stops.lt/kaunas/index.html#stop/249,,
2518,,"A. Smetonos al. A",,54.86888,23.96189,https://www.stops.lt/kaunas/index.html#stop/208,,
2517,,"A. Smetonos al. B",,54.86932,23.96246,https://www.stops.lt/kaunas/index.html#stop/207,,
2514,,"Mažoji g. A",,54.86581,23.95837,https://www.stops.lt/kaunas/index.html#stop/204,,
16763,,"Vaidoto g. A",,54.87161,23.97738,https://www.stops.lt/kaunas/index.html#stop/215,,
2525,,"Vaidoto g. C",,54.87161,23.97738,https://www.stops.lt/kaunas/index.html#stop/215n,,
2519,,"Gailutės g. A",,54.87236,23.96527,https://www.stops.lt/kaunas/index.html#stop/209,,
2520,,"Gailutės g. B",,54.87220,23.96556,https://www.stops.lt/kaunas/index.html#stop/210,,
2523,,"J. Staugaičio g. A",,54.87161,23.97376,https://www.stops.lt/kaunas/index.html#stop/213,,
2524,,"J. Staugaičio g. B",,54.87156,23.97253,https://www.stops.lt/kaunas/index.html#stop/214,,
2528,,"Kurtinių g. A",,54.86455,23.97683,https://www.stops.lt/kaunas/index.html#stop/219,,
2527,,"Kurtinių g. B",,54.86465,23.97644,https://www.stops.lt/kaunas/index.html#stop/218,,
2513,,"Mažoji g. B",,54.86517,23.95835,https://www.stops.lt/kaunas/index.html#stop/203,,
2512,,"Tilto g. A",,54.86238,23.95867,https://www.stops.lt/kaunas/index.html#stop/202,,
2504,,"Jiesios pl. A",,54.85627,23.94418,https://www.stops.lt/kaunas/index.html#stop/194,,
2505,,"Karinis dalinys A",,54.85835,23.95011,https://www.stops.lt/kaunas/index.html#stop/195,,
2506,,"Karinis dalinys B",,54.85834,23.94954,https://www.stops.lt/kaunas/index.html#stop/196,,
2522,,"KTU inžinerijos licėjus A",,54.86740,23.97078,https://www.stops.lt/kaunas/index.html#stop/212,,
2521,,"KTU inžinerijos licėjus B",,54.86781,23.97194,https://www.stops.lt/kaunas/index.html#stop/211,,
2942,,"Panemunė",,54.86165,23.95797,https://www.stops.lt/kaunas/index.html#stop/664,,
2516,,"Smėlio g. A",,54.86442,23.96536,https://www.stops.lt/kaunas/index.html#stop/206,,
2515,,"Smėlio g. B",,54.86535,23.96740,https://www.stops.lt/kaunas/index.html#stop/205,,
2511,,"Tilto g. B",,54.86245,23.96107,https://www.stops.lt/kaunas/index.html#stop/201,,
2529,,"Onkologijos ligoninė",,54.86073,23.97485,https://www.stops.lt/kaunas/index.html#stop/220,,
14922,,"Volungių g. A",,54.86223,23.97738,https://www.stops.lt/kaunas/index.html#stop/694,,
14923,,"Volungių g. B",,54.86153,23.97747,https://www.stops.lt/kaunas/index.html#stop/695,,
2352,,"Kuršėnų g. C",,54.92222,23.90043,https://www.stops.lt/kaunas/index.html#stop/29,,
2353,,"Kuršėnų g. D",,54.92322,23.90168,https://www.stops.lt/kaunas/index.html#stop/28,,
2344,,"Pikulo g. A",,54.92894,23.90691,https://www.stops.lt/kaunas/index.html#stop/21,,
2345,,"Pikulo g. B",,54.92908,23.90738,https://www.stops.lt/kaunas/index.html#stop/20,,
2334,,"Šiaurinio aplinkkelio tiltas A",,54.93600,23.91063,https://www.stops.lt/kaunas/index.html#stop/7,,
5236,,"Šiaurinio aplinkkelio tiltas B",,54.93606,23.91102,https://www.stops.lt/kaunas/index.html#stop/752,,
2347,,"Skaudvilės g. A",,54.92641,23.90451,https://www.stops.lt/kaunas/index.html#stop/23,,
2346,,"Skaudvilės g. B",,54.92702,23.90548,https://www.stops.lt/kaunas/index.html#stop/22,,
2596,,"Jėgainės g. A",,54.89462,23.98842,https://www.stops.lt/kaunas/index.html#stop/302,,
2597,,"Jėgainės g. B",,54.89462,23.98736,https://www.stops.lt/kaunas/index.html#stop/303,,
2595,,"Naglio g. A",,54.89272,23.99947,https://www.stops.lt/kaunas/index.html#stop/301,,
2594,,"Naglio g. B",,54.89226,24.00094,https://www.stops.lt/kaunas/index.html#stop/300,,
2599,,"R. Kalantos g. A",,54.89550,23.98274,https://www.stops.lt/kaunas/index.html#stop/305,,
2598,,"R. Kalantos g. B",,54.89520,23.98337,https://www.stops.lt/kaunas/index.html#stop/304,,
2593,,"Armatūrininkų g. A",,54.88982,24.00472,https://www.stops.lt/kaunas/index.html#stop/299,,
2592,,"Armatūrininkų g. B",,54.88972,24.00442,https://www.stops.lt/kaunas/index.html#stop/298,,
5103,,"Ekskavatorininkų g. A",,54.88669,24.00639,https://www.stops.lt/kaunas/index.html#stop/710,,
5104,,"Ekskavatorininkų g. B",,54.88582,24.00656,https://www.stops.lt/kaunas/index.html#stop/711,,
2590,,"Petrašiūnai A",,54.88539,24.00748,https://www.stops.lt/kaunas/index.html#stop/295,,
2943,,"Bernardinų Plytinės g. A",,54.84437,23.94944,https://www.stops.lt/kaunas/index.html#stop/665,,
2945,,"Naujoji g. A",,54.84299,23.94145,https://www.stops.lt/kaunas/index.html#stop/667,,
2946,,"Naujoji g. B",,54.84262,23.94134,https://www.stops.lt/kaunas/index.html#stop/668,,
2968,,"Rokakiemio g. B",,54.84000,23.94723,https://www.stops.lt/kaunas/index.html#stop/690,,
2507,,"4-asis fortas A",,54.85313,23.95502,https://www.stops.lt/kaunas/index.html#stop/197,,
2508,,"4-asis fortas B",,54.85263,23.95480,https://www.stops.lt/kaunas/index.html#stop/198,,
2944,,"Bernardinų Plytinės g. B",,54.84444,23.94918,https://www.stops.lt/kaunas/index.html#stop/666,,
2509,,"Draustinis A",,54.84966,23.94869,https://www.stops.lt/kaunas/index.html#stop/199,,
2510,,"Draustinis B",,54.84949,23.94848,https://www.stops.lt/kaunas/index.html#stop/200,,
5229,,"Lazdynų g. A",,54.83404,23.94675,https://www.stops.lt/kaunas/index.html#stop/743,,
5230,,"Lazdynų g. B",,54.83375,23.94663,https://www.stops.lt/kaunas/index.html#stop/744,,
2971,,"Rokai A",,54.83696,23.94825,https://www.stops.lt/kaunas/index.html#stop/693,,
2970,,"Rokai B",,54.83707,23.94794,https://www.stops.lt/kaunas/index.html#stop/692,,
2897,,"Medekšinės g. C",,54.92802,23.80953,https://www.stops.lt/kaunas/index.html#stop/619,,
2895,,"Romainiai A",,54.93031,23.81759,https://www.stops.lt/kaunas/index.html#stop/617,,
2896,,"Romainiai B",,54.93041,23.81849,https://www.stops.lt/kaunas/index.html#stop/618,,
2894,,"Kauno miškų urėdija A",,54.92602,23.82535,https://www.stops.lt/kaunas/index.html#stop/616,,
2893,,"Kauno miškų urėdija B",,54.92653,23.82496,https://www.stops.lt/kaunas/index.html#stop/615,,
2373,,"Romainių 1-osios kapinės A",,54.92415,23.85489,https://www.stops.lt/kaunas/index.html#stop/52,,
2374,,"Romainių 1-osios kapinės B",,54.92422,23.85451,https://www.stops.lt/kaunas/index.html#stop/51,,
2375,,"Romainių 2-osios kapinės A",,54.92132,23.84775,https://www.stops.lt/kaunas/index.html#stop/53,,
2376,,"Romainių 2-osios kapinės B",,54.92180,23.84749,https://www.stops.lt/kaunas/index.html#stop/54,,
2378,,"Romainių ligoninė A",,54.92479,23.83192,https://www.stops.lt/kaunas/index.html#stop/56,,
2889,,"Romainių ligoninė B",,54.92488,23.83164,https://www.stops.lt/kaunas/index.html#stop/611,,
2377,,"Ugnės g. A",,54.92219,23.84006,https://www.stops.lt/kaunas/index.html#stop/55,,
2888,,"Ugnės g. B",,54.92242,23.83965,https://www.stops.lt/kaunas/index.html#stop/610,,
14500,,"Panerys A",,54.94985,23.91464,https://www.stops.lt/kaunas/index.html#stop/771,,
14498,,"Panerys B",,54.95084,23.91561,https://www.stops.lt/kaunas/index.html#stop/769,,
14416,,"Saliai",,54.95545,23.91958,https://www.stops.lt/kaunas/index.html#stop/770,,
2421,,"9-ojo forto muziejus A",,54.94560,23.88233,https://www.stops.lt/kaunas/index.html#stop/100,,
2422,,"9-ojo forto muziejus B",,54.94587,23.88312,https://www.stops.lt/kaunas/index.html#stop/101,,
14595,,"Radviliškio g.",,54.94432,23.88052,https://www.stops.lt/kaunas/index.html#stop/783,,
2870,,"Gamyklos g. C",,54.95128,23.89128,https://www.stops.lt/kaunas/index.html#stop/592,,
2871,,"Sargėnai A",,54.95356,23.89610,https://www.stops.lt/kaunas/index.html#stop/593,,
2869,,"Šv. Kazimiero progimnazija B",,54.95059,23.89066,https://www.stops.lt/kaunas/index.html#stop/591,,
2867,,"Vytėnų g. A",,54.94733,23.88534,https://www.stops.lt/kaunas/index.html#stop/589,,
2868,,"Vytėnų g. B",,54.94828,23.88692,https://www.stops.lt/kaunas/index.html#stop/590,,
4725,,"Muitinės g. A",,54.95675,23.90050,https://www.stops.lt/kaunas/index.html#stop/239,,
4726,,"Muitinės g. B",,54.95744,23.90151,https://www.stops.lt/kaunas/index.html#stop/238,,
2872,,"Sargėnai B",,54.95421,23.89767,https://www.stops.lt/kaunas/index.html#stop/594,,
2843,,"Vilniaus g. A",,54.89596,23.89627,https://www.stops.lt/kaunas/index.html#stop/563,,
2844,,"Vilniaus g. B",,54.89645,23.89591,https://www.stops.lt/kaunas/index.html#stop/564,,
2839,,"Kauno pilis C",,54.89965,23.88976,https://www.stops.lt/kaunas/index.html#stop/559,,
2842,,"Karaliaus Mindaugo pr. A",,54.89491,23.88829,https://www.stops.lt/kaunas/index.html#stop/562,,
2845,,"Karaliaus Mindaugo pr. B",,54.89500,23.89176,https://www.stops.lt/kaunas/index.html#stop/565,,
2846,,"Vilniaus g. C",,54.89645,23.89753,https://www.stops.lt/kaunas/index.html#stop/566,,
2841,,"Kauno pilis A",,54.90097,23.89202,https://www.stops.lt/kaunas/index.html#stop/561,,
2840,,"Kauno pilis B",,54.90057,23.89317,https://www.stops.lt/kaunas/index.html#stop/560,,
2849,,"Laisvės alėja A",,54.89804,23.89972,https://www.stops.lt/kaunas/index.html#stop/569,,
2364,,"Apuolės g. A",,54.91934,23.87802,https://www.stops.lt/kaunas/index.html#stop/42,,
2363,,"Apuolės g. B",,54.91932,23.87744,https://www.stops.lt/kaunas/index.html#stop/41,,
2356,,"Baltijos g. A",,54.92339,23.88809,https://www.stops.lt/kaunas/index.html#stop/32,,
2357,,"Baltijos g. B",,54.92272,23.88570,https://www.stops.lt/kaunas/index.html#stop/33,,
2366,,"Naujakurių g. A",,54.91577,23.86832,https://www.stops.lt/kaunas/index.html#stop/46,,
2365,,"Naujakurių g. B",,54.91590,23.86733,https://www.stops.lt/kaunas/index.html#stop/45,,
2349,,"A. Strazdo g. A",,54.92536,23.90512,https://www.stops.lt/kaunas/index.html#stop/25,,
2348,,"A. Strazdo g. B",,54.92563,23.90551,https://www.stops.lt/kaunas/index.html#stop/24,,
2358,,"Baltų pr. A",,54.92766,23.87992,https://www.stops.lt/kaunas/index.html#stop/34,,
2359,,"Baltų pr. B",,54.92744,23.87825,https://www.stops.lt/kaunas/index.html#stop/35,,
2340,,"Juozo Grušo meno gimnazija A",,54.93067,23.89169,https://www.stops.lt/kaunas/index.html#stop/16,,
2339,,"Juozo Grušo meno gimnazija B",,54.93096,23.89214,https://www.stops.lt/kaunas/index.html#stop/15,,
2371,,"Labūnavos g. A",,54.91953,23.86587,https://www.stops.lt/kaunas/index.html#stop/49,,
2900,,"Labūnavos g. B",,54.91879,23.86497,https://www.stops.lt/kaunas/index.html#stop/622,,
5226,,"Prūsų g. D",,54.92145,23.86731,https://www.stops.lt/kaunas/index.html#stop/740,,
2361,,"Šilainių pl. A",,54.92466,23.87359,https://www.stops.lt/kaunas/index.html#stop/38,,
2362,,"Šilainių pl. B",,54.92416,23.87181,https://www.stops.lt/kaunas/index.html#stop/39,,
5228,,"Žemaičių pl. A",,54.92939,23.88462,https://www.stops.lt/kaunas/index.html#stop/742,,
5227,,"Žemaičių pl. B",,54.92983,23.88467,https://www.stops.lt/kaunas/index.html#stop/741,,
5233,,"Mega A",,54.93826,23.89203,https://www.stops.lt/kaunas/index.html#stop/750,,
5234,,"Mega B",,54.93851,23.89067,https://www.stops.lt/kaunas/index.html#stop/751,,
15508,,"Kauno ligoninė C",,54.91553,23.85886,https://www.stops.lt/kaunas/index.html#stop/50,,
2341,,"Jotvingių g. B",,54.93098,23.89682,https://www.stops.lt/kaunas/index.html#stop/17,,
2338,,"Šarkuvos g. A",,54.93453,23.89767,https://www.stops.lt/kaunas/index.html#stop/14,,
2337,,"Šarkuvos g. B",,54.93452,23.89798,https://www.stops.lt/kaunas/index.html#stop/12,,
14403,,"9-ojo Forto g. A",,54.93585,23.88698,https://www.stops.lt/kaunas/index.html#stop/762,,
14404,,"9-ojo Forto g. B",,54.93596,23.88633,https://www.stops.lt/kaunas/index.html#stop/763,,
2336,,"Kuršių g. A",,54.93596,23.89287,https://www.stops.lt/kaunas/index.html#stop/10,,
2335,,"Kuršių g. B",,54.93616,23.89225,https://www.stops.lt/kaunas/index.html#stop/11,,
2873,,"Kuršių g. C",,54.93404,23.90475,https://www.stops.lt/kaunas/index.html#stop/595,,
2351,,"Kuršėnų g. A",,54.92008,23.90800,https://www.stops.lt/kaunas/index.html#stop/27,,
2350,,"Kuršėnų g. B",,54.92039,23.90837,https://www.stops.lt/kaunas/index.html#stop/26,,
2390,,"Varnių tiltas A",,54.91593,23.90749,https://www.stops.lt/kaunas/index.html#stop/67,,
2389,,"Varnių tiltas B",,54.91533,23.90792,https://www.stops.lt/kaunas/index.html#stop/68,,
14530,,"Prūsų g. A",,54.92105,23.87116,https://www.stops.lt/kaunas/index.html#stop/773,,
4261,,"Prūsų g. B",,54.92051,23.87249,https://www.stops.lt/kaunas/index.html#stop/144,,
2342,,"Jotvingių g. A",,54.93030,23.89556,https://www.stops.lt/kaunas/index.html#stop/18,,
5254,,"Senukai C",,54.93801,23.89643,https://www.stops.lt/kaunas/index.html#stop/755,,
2354,,"Milikoniai A",,54.92401,23.89247,https://www.stops.lt/kaunas/index.html#stop/31,,
2355,,"Milikoniai B",,54.92318,23.89336,https://www.stops.lt/kaunas/index.html#stop/30,,
2332,,"Mosėdžio g. A",,54.93302,23.88492,https://www.stops.lt/kaunas/index.html#stop/4,,
2331,,"Mosėdžio g. B",,54.93313,23.88555,https://www.stops.lt/kaunas/index.html#stop/3,,
2330,,"Šilainių poliklinika A",,54.92804,23.88878,https://www.stops.lt/kaunas/index.html#stop/2,,
2329,,"Šilainių poliklinika B",,54.92840,23.88929,https://www.stops.lt/kaunas/index.html#stop/1,,
2360,,"Žiemgalių g. A",,54.92393,23.87945,https://www.stops.lt/kaunas/index.html#stop/36,,
5051,,"Žiemgalių g. B",,54.92355,23.87957,https://www.stops.lt/kaunas/index.html#stop/705,,
2921,,"Didžioji g. A",,54.86088,24.00700,https://www.stops.lt/kaunas/index.html#stop/643,,
2922,,"Didžioji g. B",,54.86109,24.00654,https://www.stops.lt/kaunas/index.html#stop/644,,
14399,,"Garšvės g. A",,54.85507,24.01396,https://www.stops.lt/kaunas/index.html#stop/757,,
14400,,"Garšvės g. B",,54.85466,24.01420,https://www.stops.lt/kaunas/index.html#stop/758,,
14401,,"Užvingių g. A",,54.84995,24.03041,https://www.stops.lt/kaunas/index.html#stop/759,,
14402,,"Užvingių g. B",,54.84965,24.03087,https://www.stops.lt/kaunas/index.html#stop/760,,
4958,,"Piliuonos g. A",,54.85328,24.01788,https://www.stops.lt/kaunas/index.html#stop/217,,
4957,,"Piliuonos g. B",,54.85242,24.02031,https://www.stops.lt/kaunas/index.html#stop/230,,
2924,,"Vaišvydava A",,54.85132,24.02550,https://www.stops.lt/kaunas/index.html#stop/646,,
2923,,"Vaišvydava B",,54.85081,24.02666,https://www.stops.lt/kaunas/index.html#stop/645,,
2541,,"Rūko g. A",,54.86394,24.00028,https://www.stops.lt/kaunas/index.html#stop/240,,
2542,,"Rūko g. B",,54.86351,24.00035,https://www.stops.lt/kaunas/index.html#stop/241,,
2540,,"Lentpjūvė A",,54.86524,23.99093,https://www.stops.lt/kaunas/index.html#stop/235,,
2539,,"Lentpjūvė B",,54.86511,23.99093,https://www.stops.lt/kaunas/index.html#stop/234,,
2531,,"Vaišvydavos pl. A",,54.86731,23.98346,https://www.stops.lt/kaunas/index.html#stop/222,,
2530,,"Vaišvydavos pl. B",,54.86705,23.98377,https://www.stops.lt/kaunas/index.html#stop/221,,
2534,,"Baterijos pl. A",,54.87640,23.97974,https://www.stops.lt/kaunas/index.html#stop/225,,
2535,,"Baterijos pl. B",,54.87765,23.98044,https://www.stops.lt/kaunas/index.html#stop/226,,
2526,,"Vaidoto g. B",,54.87191,23.97736,https://www.stops.lt/kaunas/index.html#stop/216,,
2532,,"Vaikų sanatorija A",,54.88029,23.98170,https://www.stops.lt/kaunas/index.html#stop/223,,
2533,,"Vaikų sanatorija B",,54.88040,23.98226,https://www.stops.lt/kaunas/index.html#stop/224,,
2538,,"Vičiūnai",,54.88829,23.97666,https://www.stops.lt/kaunas/index.html#stop/229,,
4423,,"Slaugos ligoninė",,54.87325,23.98700,https://www.stops.lt/kaunas/index.html#stop/178,,
2537,,"K. Griniaus ligoninė A",,54.88370,23.98201,https://www.stops.lt/kaunas/index.html#stop/228,,
2536,,"K. Griniaus ligoninė B",,54.88378,23.98217,https://www.stops.lt/kaunas/index.html#stop/227,,
2399,,"Ariogalos g.",,54.90561,23.88907,https://www.stops.lt/kaunas/index.html#stop/77,,
2380,,"Kulvos g. A",,54.91731,23.90543,https://www.stops.lt/kaunas/index.html#stop/58,,
2379,,"Kulvos g. B",,54.91731,23.90604,https://www.stops.lt/kaunas/index.html#stop/57,,
2367,,"Bartuvos g. A",,54.91455,23.86674,https://www.stops.lt/kaunas/index.html#stop/43,,
2368,,"Bartuvos g. B",,54.91473,23.86737,https://www.stops.lt/kaunas/index.html#stop/44,,
2402,,"Jurbarko g. A",,54.90506,23.88521,https://www.stops.lt/kaunas/index.html#stop/80,,
2401,,"Jurbarko g. B",,54.90473,23.88677,https://www.stops.lt/kaunas/index.html#stop/79,,
2370,,"Josvainių g. A",,54.91486,23.87509,https://www.stops.lt/kaunas/index.html#stop/48,,
2369,,"Josvainių g. B",,54.91497,23.87527,https://www.stops.lt/kaunas/index.html#stop/47,,
2406,,"Tilžės g. A",,54.91009,23.87551,https://www.stops.lt/kaunas/index.html#stop/85,,
2405,,"Tilžės g. B",,54.91017,23.87588,https://www.stops.lt/kaunas/index.html#stop/84,,
2387,,"Linkuvos g.",,54.91480,23.88811,https://www.stops.lt/kaunas/index.html#stop/71,,
2395,,"Sąjungos aikštė",,54.91122,23.88893,https://www.stops.lt/kaunas/index.html#stop/73,,
5030,,"A. Kriščiukaičio g. A",,54.90558,23.88979,https://www.stops.lt/kaunas/index.html#stop/165,,
2400,,"A. Kriščiukaičio g. B",,54.90610,23.89057,https://www.stops.lt/kaunas/index.html#stop/78,,
5027,,"Bijūnų g. A",,54.91190,23.90409,https://www.stops.lt/kaunas/index.html#stop/185,,
2391,,"Bijūnų g. B",,54.91215,23.90593,https://www.stops.lt/kaunas/index.html#stop/69,,
5028,,"K. Griniaus g. A",,54.91101,23.89729,https://www.stops.lt/kaunas/index.html#stop/184,,
2394,,"K. Griniaus g. B",,54.91119,23.89841,https://www.stops.lt/kaunas/index.html#stop/72,,
5029,,"Neries krantinė A",,54.90845,23.89318,https://www.stops.lt/kaunas/index.html#stop/183,,
2397,,"Neries krantinė B",,54.90872,23.89377,https://www.stops.lt/kaunas/index.html#stop/75,,
2832,,"Juozo Gruodžio namai A",,54.91410,23.91335,https://www.stops.lt/kaunas/index.html#stop/551,,
2831,,"Juozo Gruodžio namai B",,54.91434,23.91346,https://www.stops.lt/kaunas/index.html#stop/550,,
2383,,"Demokratų g. A",,54.91885,23.89713,https://www.stops.lt/kaunas/index.html#stop/61,,
2382,,"Demokratų g. B",,54.91866,23.89723,https://www.stops.lt/kaunas/index.html#stop/60,,
2396,,"M. Mažvydo g.",,54.91079,23.88739,https://www.stops.lt/kaunas/index.html#stop/74,,
2398,,"Radvilų dvaro g.",,54.90708,23.88358,https://www.stops.lt/kaunas/index.html#stop/76,,
2384,,"Švyturio g.",,54.91543,23.89310,https://www.stops.lt/kaunas/index.html#stop/62,,
2415,,"Atominio bunkerio muziejus A",,54.91203,23.84527,https://www.stops.lt/kaunas/index.html#stop/94,,
2416,,"Atominio bunkerio muziejus B",,54.91287,23.84353,https://www.stops.lt/kaunas/index.html#stop/95,,
2419,,"Gervių g. A",,54.91562,23.83658,https://www.stops.lt/kaunas/index.html#stop/98,,
2418,,"Gervių g. B",,54.91585,23.83686,https://www.stops.lt/kaunas/index.html#stop/97,,
2411,,"Inkaro g. A",,54.90943,23.85792,https://www.stops.lt/kaunas/index.html#stop/90,,
2412,,"Inkaro g. B",,54.90995,23.85542,https://www.stops.lt/kaunas/index.html#stop/91,,
2408,,"Kauno autobusai A",,54.90799,23.86820,https://www.stops.lt/kaunas/index.html#stop/87,,
2407,,"Kauno autobusai B",,54.90777,23.87098,https://www.stops.lt/kaunas/index.html#stop/86,,
2404,,"Kėdainių g. A",,54.90670,23.87701,https://www.stops.lt/kaunas/index.html#stop/82,,
2403,,"Kėdainių g. B",,54.90668,23.87842,https://www.stops.lt/kaunas/index.html#stop/81,,
2414,,"Vyžuonos g. A",,54.91048,23.85123,https://www.stops.lt/kaunas/index.html#stop/93,,
2413,,"Vyžuonos g. B",,54.91081,23.85052,https://www.stops.lt/kaunas/index.html#stop/92,,
2901,,"Žagarės g. A",,54.90879,23.86233,https://www.stops.lt/kaunas/index.html#stop/623,,
2410,,"Žagarės g. B",,54.90911,23.86130,https://www.stops.lt/kaunas/index.html#stop/89,,
2385,,"Panerių g. A",,54.91519,23.89157,https://www.stops.lt/kaunas/index.html#stop/63,,
2388,,"Panerių g. B",,54.91488,23.89413,https://www.stops.lt/kaunas/index.html#stop/66,,
5031,,"Varnių g. A",,54.91499,23.89145,https://www.stops.lt/kaunas/index.html#stop/154,,
2386,,"Varnių g. B",,54.91521,23.89020,https://www.stops.lt/kaunas/index.html#stop/64,,
2392,,"Vilijampolės turgavietė A",,54.91446,23.90355,https://www.stops.lt/kaunas/index.html#stop/70,,
2393,,"Vilijampolės turgavietė B",,54.91487,23.90159,https://www.stops.lt/kaunas/index.html#stop/65,,
2865,,"Salantų g. A",,54.94531,23.88901,https://www.stops.lt/kaunas/index.html#stop/587,,
2866,,"Salantų g. B",,54.94534,23.88966,https://www.stops.lt/kaunas/index.html#stop/588,,
2864,,"Smiltynės g. A",,54.94262,23.89936,https://www.stops.lt/kaunas/index.html#stop/586,,
2863,,"Smiltynės g. B",,54.94316,23.89797,https://www.stops.lt/kaunas/index.html#stop/585,,
2333,,"Vytėnai",,54.94082,23.90673,https://www.stops.lt/kaunas/index.html#stop/5,,
2672,,"Geležinkelio g. A",,54.87772,23.93431,https://www.stops.lt/kaunas/index.html#stop/382,,
2673,,"Geležinkelio g. B",,54.87818,23.93363,https://www.stops.lt/kaunas/index.html#stop/383,,
2671,,"Geležinkelio tiltas A",,54.88189,23.92817,https://www.stops.lt/kaunas/index.html#stop/381,,
2918,,"Geležinkelio tiltas B",,54.88267,23.92651,https://www.stops.lt/kaunas/index.html#stop/640,,
2678,,"Gudų g. A",,54.86742,23.94557,https://www.stops.lt/kaunas/index.html#stop/395,,
2679,,"Gudų g. B",,54.86744,23.94504,https://www.stops.lt/kaunas/index.html#stop/396,,
2680,,"Šančių kapinės A",,54.86502,23.94998,https://www.stops.lt/kaunas/index.html#stop/397,,
2681,,"Šančių kapinės B",,54.86442,23.95027,https://www.stops.lt/kaunas/index.html#stop/398,,
2674,,"Šančių poliklinika A",,54.87382,23.93604,https://www.stops.lt/kaunas/index.html#stop/385,,
4692,,"Šančių poliklinika B",,54.87287,23.93559,https://www.stops.lt/kaunas/index.html#stop/386,,
2676,,"Švč. Jėzaus Širdies bažnyčia A",,54.87041,23.94005,https://www.stops.lt/kaunas/index.html#stop/393,,
2677,,"Švč. Jėzaus Širdies bažnyčia B",,54.87054,23.93933,https://www.stops.lt/kaunas/index.html#stop/394,,
5118,,"Danų g.",,54.87084,23.93624,https://www.stops.lt/kaunas/index.html#stop/723,,
2682,,"Drobės g. A",,54.87040,23.94883,https://www.stops.lt/kaunas/index.html#stop/399,,
2683,,"Drobės g. B",,54.87040,23.94914,https://www.stops.lt/kaunas/index.html#stop/400,,
2919,,"Kauno baldai A",,54.87082,23.95343,https://www.stops.lt/kaunas/index.html#stop/641,,
2686,,"Kauno baldai B",,54.87072,23.95374,https://www.stops.lt/kaunas/index.html#stop/405,,
2685,,"Senoji rampa A",,54.87237,23.95742,https://www.stops.lt/kaunas/index.html#stop/404,,
2684,,"Senoji rampa B",,54.87416,23.95793,https://www.stops.lt/kaunas/index.html#stop/403,,
2920,,"Švenčionių g.",,54.87641,23.95778,https://www.stops.lt/kaunas/index.html#stop/642,,
14630,,"A. Juozapavičiaus pr. A",,54.86323,23.95034,https://www.stops.lt/kaunas/index.html#stop/787,,
14629,,"A. Juozapavičiaus pr. B",,54.86350,23.95103,https://www.stops.lt/kaunas/index.html#stop/786,,
5119,,"Kranto 13-oji g. A",,54.86577,23.93728,https://www.stops.lt/kaunas/index.html#stop/726,,
5120,,"Kranto 13-oji g. B",,54.86575,23.93711,https://www.stops.lt/kaunas/index.html#stop/725,,
5123,,"Mažeikių g.",,54.87283,23.93360,https://www.stops.lt/kaunas/index.html#stop/728,,
5121,,"Talino g. A",,54.86836,23.93479,https://www.stops.lt/kaunas/index.html#stop/727,,
5122,,"Talino g. B",,54.86841,23.93456,https://www.stops.lt/kaunas/index.html#stop/724,,
14628,,"VDU klasikinio ugdymo licėjus A",,54.86284,23.94228,https://www.stops.lt/kaunas/index.html#stop/785,,
5115,,"VDU klasikinio ugdymo licėjus B",,54.86246,23.94279,https://www.stops.lt/kaunas/index.html#stop/722,,
2828,,"Jonavos g. A",,54.92678,23.91507,https://www.stops.lt/kaunas/index.html#stop/547,,
2827,,"Jonavos g. B",,54.92466,23.91484,https://www.stops.lt/kaunas/index.html#stop/546,,
2830,,"Mokyklos bendrabučiai A",,54.91874,23.91269,https://www.stops.lt/kaunas/index.html#stop/549,,
2829,,"Mokyklos bendrabučiai B",,54.91910,23.91321,https://www.stops.lt/kaunas/index.html#stop/548,,
2836,,"P. Kalpoko g. A",,54.90688,23.90200,https://www.stops.lt/kaunas/index.html#stop/555,,
2835,,"P. Kalpoko g. B",,54.90706,23.90300,https://www.stops.lt/kaunas/index.html#stop/554,,
2838,,"P. Vileišio tiltas A",,54.90292,23.89539,https://www.stops.lt/kaunas/index.html#stop/557,,
2837,,"P. Vileišio tiltas B",,54.90374,23.89715,https://www.stops.lt/kaunas/index.html#stop/556,,
14405,,"Senukai B",,54.90536,23.89992,https://www.stops.lt/kaunas/index.html#stop/764,,
2826,,"Šiaurės pr. C",,54.93021,23.91627,https://www.stops.lt/kaunas/index.html#stop/545,,
2825,,"Šiaurės pr. D",,54.92982,23.91655,https://www.stops.lt/kaunas/index.html#stop/544,,
2833,,"Varnių tiltas C",,54.91233,23.91021,https://www.stops.lt/kaunas/index.html#stop/552,,
2834,,"Varnių tiltas D",,54.91479,23.91198,https://www.stops.lt/kaunas/index.html#stop/553,,
2720,,"K. Petrausko g.",,54.90814,23.92922,https://www.stops.lt/kaunas/index.html#stop/439,,
2772,,"M. Jankaus g. A",,54.90450,23.93150,https://www.stops.lt/kaunas/index.html#stop/491,,
2771,,"M. Jankaus g. B",,54.90368,23.93171,https://www.stops.lt/kaunas/index.html#stop/490,,
2774,,"Sporto g. A",,54.90020,23.93166,https://www.stops.lt/kaunas/index.html#stop/493,,
2773,,"Sporto g. B",,54.89941,23.93225,https://www.stops.lt/kaunas/index.html#stop/492,,
2723,,"Aukštaičių g. A",,54.90545,23.91948,https://www.stops.lt/kaunas/index.html#stop/442,,
2722,,"Aukštaičių g. B",,54.90590,23.92135,https://www.stops.lt/kaunas/index.html#stop/441,,
2708,,"Baldų parduotuvė A",,54.92126,23.95626,https://www.stops.lt/kaunas/index.html#stop/427,,
2707,,"Baldų parduotuvė B",,54.92165,23.95773,https://www.stops.lt/kaunas/index.html#stop/426,,
2706,,"Kalniečių poliklinika",,54.92352,23.96122,https://www.stops.lt/kaunas/index.html#stop/425,,
2701,,"Kalniečių turgavietė A",,54.92506,23.96470,https://www.stops.lt/kaunas/index.html#stop/420,,
2702,,"Kalniečių turgavietė B",,54.92467,23.96448,https://www.stops.lt/kaunas/index.html#stop/421,,
2714,,"Kauno aklųjų ir silpnaregių centras A",,54.91161,23.93502,https://www.stops.lt/kaunas/index.html#stop/433,,
2717,,"Kauno aklųjų ir silpnaregių centras B",,54.91282,23.93829,https://www.stops.lt/kaunas/index.html#stop/436,,
2713,,"Kauno aklųjų ir silpnaregių centras C",,54.91295,23.93791,https://www.stops.lt/kaunas/index.html#stop/432,,
2848,,"Laisvės alėja B",,54.89864,23.90229,https://www.stops.lt/kaunas/index.html#stop/568,,
2711,,"Mituvos g. A",,54.91532,23.94318,https://www.stops.lt/kaunas/index.html#stop/430,,
2712,,"Mituvos g. B",,54.91567,23.94454,https://www.stops.lt/kaunas/index.html#stop/431,,
2709,,"Ortopedijos technika A",,54.91864,23.95043,https://www.stops.lt/kaunas/index.html#stop/428,,
2710,,"Ortopedijos technika B",,54.91919,23.95230,https://www.stops.lt/kaunas/index.html#stop/429,,
2705,,"Savas",,54.92353,23.96197,https://www.stops.lt/kaunas/index.html#stop/424,,
2719,,"Utenos g. A",,54.90835,23.92734,https://www.stops.lt/kaunas/index.html#stop/438,,
2718,,"Utenos g. B",,54.90953,23.93096,https://www.stops.lt/kaunas/index.html#stop/437,,
2725,,"Žemaičių g. A",,54.90372,23.91476,https://www.stops.lt/kaunas/index.html#stop/444,,
2724,,"Žemaičių g. B",,54.90368,23.91528,https://www.stops.lt/kaunas/index.html#stop/443,,
2804,,"Eivenių g.",,54.91560,23.92359,https://www.stops.lt/kaunas/index.html#stop/523,,
2715,,"Kauno aklųjų ir silpnaregių centras D",,54.91147,23.93812,https://www.stops.lt/kaunas/index.html#stop/434,,
2716,,"Kauno aklųjų ir silpnaregių centras E",,54.91179,23.93833,https://www.stops.lt/kaunas/index.html#stop/435,,
2820,,"P. Dovydaičio g. A",,54.91101,23.92555,https://www.stops.lt/kaunas/index.html#stop/539,,
2819,,"P. Dovydaičio g. B",,54.91192,23.92527,https://www.stops.lt/kaunas/index.html#stop/538,,
2721,,"Utenos g. D",,54.90924,23.92832,https://www.stops.lt/kaunas/index.html#stop/440,,