{
  "city": "vilnius",
  "start_sec": 57600,
  "end_sec": 64800,
  "sorted_by": "avg_gap_sec_asc",
  "stops": [
    {
      "stop_id": "5245",
      "name": "Žaliasis tiltas",
      "lat": 54.69236,
      "lon": 25.28048,
      "avg_gap_sec": 20
    },
    {
      "stop_id": "5300",
      "name": "Stotis",
      "lat": 54.67071,
      "lon": 25.2849,
      "avg_gap_sec": 26
    },
    {
      "stop_id": "5338",
      "name": "Centro poliklinika",
      "lat": 54.68371,
      "lon": 25.27701,
      "avg_gap_sec": 28
    },
    {
      "stop_id": "5345",
      "name": "MO muziejus",
      "lat": 54.67934,
      "lon": 25.27802,
      "avg_gap_sec": 28
    },
    {
      "stop_id": "5244",
      "name": "Žaliasis tiltas",
      "lat": 54.69234,
      "lon": 25.28003,
      "avg_gap_sec": 28
    },
    {
      "stop_id": "5346",
      "name": "MO muziejus",
      "lat": 54.67902,
      "lon": 25.27855,
      "avg_gap_sec": 28
    },
    {
      "stop_id": "6834",
      "name": "Rūdninkų st.",
      "lat": 54.67454,
      "lon": 25.28492,
      "avg_gap_sec": 29
    },
    {
      "stop_id": "5492",
      "name": "Vinco Kudirkos aikštė",
      "lat": 54.68753,
      "lon": 25.2798,
      "avg_gap_sec": 30
    },
    {
      "stop_id": "848",
      "name": "Karaliaus Mindaugo tiltas",
      "lat": 54.68858,
      "lon": 25.28741,
      "avg_gap_sec": 31
    },
    {
      "stop_id": "5409",
      "name": "Vinco Kudirkos aikštė",
      "lat": 54.68871,
      "lon": 25.27982,
      "avg_gap_sec": 31
    },
    {
      "stop_id": "5267",
      "name": "Mikalojaus Konstantino Čiurlionio st.",
      "lat": 54.68203,
      "lon": 25.26526,
      "avg_gap_sec": 32
    },
    {
      "stop_id": "5768",
      "name": "Šv. Petro ir Povilo bažnyčia",
      "lat": 54.69301,
      "lon": 25.30313,
      "avg_gap_sec": 34
    },
    {
      "stop_id": "6931",
      "name": "Skalvių st.",
      "lat": 54.73471,
      "lon": 25.22005,
      "avg_gap_sec": 34
    },
    {
      "stop_id": "7603",
      "name": "Skalvių st.",
      "lat": 54.73455,
      "lon": 25.21963,
      "avg_gap_sec": 34
    },
    {
      "stop_id": "4990",
      "name": "Sietyno st.",
      "lat": 54.70037,
      "lon": 25.22343,
      "avg_gap_sec": 35
    },
    {
      "stop_id": "7415",
      "name": "Teodoro Narbuto st.",
      "lat": 54.70018,
      "lon": 25.22967,
      "avg_gap_sec": 35
    },
    {
      "stop_id": "6643",
      "name": "Laisvės prospektas",
      "lat": 54.69752,
      "lon": 25.22123,
      "avg_gap_sec": 36
    },
    {
      "stop_id": "7416",
      "name": "Teodoro Narbuto st.",
      "lat": 54.69995,
      "lon": 25.23016,
      "avg_gap_sec": 36
    },
    {
      "stop_id": "5118",
      "name": "Antakalnis",
      "lat": 54.7196,
      "lon": 25.31724,
      "avg_gap_sec": 37
    },
    {
      "stop_id": "7852",
      "name": "Savanorių prospektas",
      "lat": 54.6734,
      "lon": 25.247,
      "avg_gap_sec": 37
    },
    {
      "stop_id": "5532",
      "name": "Gerosios Vilties st.",
      "lat": 54.6708,
      "lon": 25.24196,
      "avg_gap_sec": 37
    },
    {
      "stop_id": "5643",
      "name": "Sietyno st.",
      "lat": 54.69858,
      "lon": 25.22124,
      "avg_gap_sec": 37
    },
    {
      "stop_id": "5535",
      "name": "Gerosios Vilties st.",
      "lat": 54.6704,
      "lon": 25.24159,
      "avg_gap_sec": 37
    },
    {
      "stop_id": "7853",
      "name": "Savanorių prospektas",
      "lat": 54.67403,
      "lon": 25.2486,
      "avg_gap_sec": 37
    },
    {
      "stop_id": "5432",
      "name": "Reformatų st.",
      "lat": 54.68149,
      "lon": 25.2774,
      "avg_gap_sec": 37
    },
    {
      "stop_id": "928",
      "name": "Spaudos rūmai",
      "lat": 54.70263,
      "lon": 25.22377,
      "avg_gap_sec": 38
    },
    {
      "stop_id": "6843",
      "name": "Kalvarijų turgus",
      "lat": 54.70019,
      "lon": 25.28301,
      "avg_gap_sec": 38
    },
    {
      "stop_id": "6844",
      "name": "Broniaus Laurinavičiaus skveras",
      "lat": 54.70419,
      "lon": 25.28405,
      "avg_gap_sec": 38
    },
    {
      "stop_id": "5349",
      "name": "Vingriai",
      "lat": 54.67665,
      "lon": 25.28086,
      "avg_gap_sec": 38
    },
    {
      "stop_id": "5430",
      "name": "Gėlių st.",
      "lat": 54.67424,
      "lon": 25.28366,
      "avg_gap_sec": 38
    },
    {
      "stop_id": "5264",
      "name": "Juozo Tumo-Vaižganto st.",
      "lat": 54.68835,
      "lon": 25.26799,
      "avg_gap_sec": 38
    },
    {
      "stop_id": "5459",
      "name": "Jogailos st.",
      "lat": 54.68526,
      "lon": 25.27821,
      "avg_gap_sec": 39
    },
    {
      "stop_id": "5103",
      "name": "Saulėtekis",
      "lat": 54.72622,
      "lon": 25.32482,
      "avg_gap_sec": 39
    },
    {
      "stop_id": "7278",
      "name": "Karaliaus Mindaugo tiltas",
      "lat": 54.68822,
      "lon": 25.289,
      "avg_gap_sec": 40
    },
    {
      "stop_id": "6573",
      "name": "Kalnų parkas",
      "lat": 54.68965,
      "lon": 25.29581,
      "avg_gap_sec": 40
    },
    {
      "stop_id": "741",
      "name": "Nemenčinės plentas",
      "lat": 54.72278,
      "lon": 25.32004,
      "avg_gap_sec": 40
    },
    {
      "stop_id": "5771",
      "name": "Kalnų parkas",
      "lat": 54.68938,
      "lon": 25.2945,
      "avg_gap_sec": 40
    },
    {
      "stop_id": "6736",
      "name": "Juozo Tumo-Vaižganto st.",
      "lat": 54.68958,
      "lon": 25.26922,
      "avg_gap_sec": 41
    },
    {
      "stop_id": "5378",
      "name": "Kalvarijų turgus",
      "lat": 54.69931,
      "lon": 25.28249,
      "avg_gap_sec": 41
    },
    {
      "stop_id": "988",
      "name": "Lietuvos sąjūdžio kelias",
      "lat": 54.69853,
      "lon": 25.2665,
      "avg_gap_sec": 41
    },
    {
      "stop_id": "5770",
      "name": "Šv. Petro ir Povilo bažnyčia",
      "lat": 54.69275,
      "lon": 25.30315,
      "avg_gap_sec": 42
    },
    {
      "stop_id": "6501",
      "name": "Jeruzalė",
      "lat": 54.74295,
      "lon": 25.27691,
      "avg_gap_sec": 42
    },
    {
      "stop_id": "5481",
      "name": "Pramogų arena",
      "lat": 54.71448,
      "lon": 25.28664,
      "avg_gap_sec": 42
    },
    {
      "stop_id": "5467",
      "name": "Žalgirio st.",
      "lat": 54.70308,
      "lon": 25.28353,
      "avg_gap_sec": 42
    },
    {
      "stop_id": "753",
      "name": "Europos aikštė",
      "lat": 54.69564,
      "lon": 25.27743,
      "avg_gap_sec": 42
    },
    {
      "stop_id": "6500",
      "name": "Jeruzalė",
      "lat": 54.74415,
      "lon": 25.27788,
      "avg_gap_sec": 43
    },
    {
      "stop_id": "5104",
      "name": "Saulėtekis",
      "lat": 54.72624,
      "lon": 25.32752,
      "avg_gap_sec": 44
    },
    {
      "stop_id": "6239",
      "name": "Senoji plytinė",
      "lat": 54.72403,
      "lon": 25.33967,
      "avg_gap_sec": 44
    },
    {
      "stop_id": "6715",
      "name": "Vilniaus universitetas",
      "lat": 54.72489,
      "lon": 25.33134,
      "avg_gap_sec": 44
    },
    {
      "stop_id": "5119",
      "name": "Tverečiaus st.",
      "lat": 54.7175,
      "lon": 25.31659,
      "avg_gap_sec": 44
    },
    {
      "stop_id": "5096",
      "name": "Klinikų st.",
      "lat": 54.71058,
      "lon": 25.31437,
      "avg_gap_sec": 44
    },
    {
      "stop_id": "5351",
      "name": "Giedraičių st.",
      "lat": 54.70734,
      "lon": 25.28494,
      "avg_gap_sec": 44
    },
    {
      "stop_id": "5105",
      "name": "Vilniaus universitetas",
      "lat": 54.72454,
      "lon": 25.33199,
      "avg_gap_sec": 44
    },
    {
      "stop_id": "5092",
      "name": "Šilo tiltas",
      "lat": 54.70545,
      "lon": 25.31096,
      "avg_gap_sec": 45
    },
    {
      "stop_id": "5095",
      "name": "Klinikų st.",
      "lat": 54.71125,
      "lon": 25.31486,
      "avg_gap_sec": 45
    },
    {
      "stop_id": "6711",
      "name": "Antakalnis",
      "lat": 54.72106,
      "lon": 25.31821,
      "avg_gap_sec": 45
    },
    {
      "stop_id": "900",
      "name": "Senoji plytinė",
      "lat": 54.72416,
      "lon": 25.34075,
      "avg_gap_sec": 45
    },
    {
      "stop_id": "5116",
      "name": "Gedimino technikos universitetas",
      "lat": 54.72412,
      "lon": 25.33451,
      "avg_gap_sec": 45
    },
    {
      "stop_id": "5469",
      "name": "Tauragnų st.",
      "lat": 54.71234,
      "lon": 25.28672,
      "avg_gap_sec": 45
    },
    {
      "stop_id": "5107",
      "name": "Gedimino technikos universitetas",
      "lat": 54.72385,
      "lon": 25.33566,
      "avg_gap_sec": 45
    },
    {
      "stop_id": "1035",
      "name": "Tverečiaus st.",
      "lat": 54.71619,
      "lon": 25.31646,
      "avg_gap_sec": 46
    },
    {
      "stop_id": "6649",
      "name": "Karoliniškės",
      "lat": 54.69279,
      "lon": 25.21733,
      "avg_gap_sec": 46
    },
    {
      "stop_id": "6845",
      "name": "Giedraičių st.",
      "lat": 54.70804,
      "lon": 25.2855,
      "avg_gap_sec": 46
    },
    {
      "stop_id": "17638",
      "name": "Europos aikštė",
      "lat": 54.69528,
      "lon": 25.27759,
      "avg_gap_sec": 46
    },
    {
      "stop_id": "5646",
      "name": "Laisvės prospektas",
      "lat": 54.69635,
      "lon": 25.21992,
      "avg_gap_sec": 47
    },
    {
      "stop_id": "5347",
      "name": "Tauragnų st.",
      "lat": 54.71169,
      "lon": 25.28625,
      "avg_gap_sec": 48
    },
    {
      "stop_id": "6635",
      "name": "Lietuvos sąjūdžio kelias",
      "lat": 54.69825,
      "lon": 25.2663,
      "avg_gap_sec": 48
    },
    {
      "stop_id": "5332",
      "name": "Pamėnkalnio st.",
      "lat": 54.68736,
      "lon": 25.26934,
      "avg_gap_sec": 49
    },
    {
      "stop_id": "1071",
      "name": "Vaivorykštės st.",
      "lat": 54.68519,
      "lon": 25.20766,
      "avg_gap_sec": 49
    },
    {
      "stop_id": "5651",
      "name": "Karoliniškės",
      "lat": 54.69244,
      "lon": 25.21631,
      "avg_gap_sec": 49
    },
    {
      "stop_id": "5668",
      "name": "Vaivorykštės st.",
      "lat": 54.6843,
      "lon": 25.20695,
      "avg_gap_sec": 50
    },
    {
      "stop_id": "6665",
      "name": "Tuskulėnų rimties parkas",
      "lat": 54.69823,
      "lon": 25.3013,
      "avg_gap_sec": 50
    },
    {
      "stop_id": "6666",
      "name": "Minties st.",
      "lat": 54.70418,
      "lon": 25.30454,
      "avg_gap_sec": 50
    },
    {
      "stop_id": "7851",
      "name": "Vienaragių st.",
      "lat": 54.67111,
      "lon": 25.26955,
      "avg_gap_sec": 50
    },
    {
      "stop_id": "6850",
      "name": "Vaduvos st.",
      "lat": 54.64438,
      "lon": 25.20665,
      "avg_gap_sec": 51
    },
    {
      "stop_id": "6853",
      "name": "Taraso Ševčenkos st.",
      "lat": 54.67869,
      "lon": 25.26718,
      "avg_gap_sec": 52
    },
    {
      "stop_id": "5658",
      "name": "Minties st.",
      "lat": 54.70362,
      "lon": 25.30416,
      "avg_gap_sec": 52
    },
    {
      "stop_id": "5567",
      "name": "Vaduvos st.",
      "lat": 54.64487,
      "lon": 25.20712,
      "avg_gap_sec": 52
    },
    {
      "stop_id": "5661",
      "name": "Tuskulėnų rimties parkas",
      "lat": 54.69757,
      "lon": 25.30032,
      "avg_gap_sec": 53
    },
    {
      "stop_id": "5063",
      "name": "Justiniškės",
      "lat": 54.71754,
      "lon": 25.22209,
      "avg_gap_sec": 53
    },
    {
      "stop_id": "3616",
      "name": "Stotis",
      "lat": 54.67115,
      "lon": 25.28328,
      "avg_gap_sec": 53
    },
    {
      "stop_id": "5248",
      "name": "Operos ir baleto teatras",
      "lat": 54.69081,
      "lon": 25.27732,
      "avg_gap_sec": 54
    },
    {
      "stop_id": "6532",
      "name": "Santariškės",
      "lat": 54.75286,
      "lon": 25.28031,
      "avg_gap_sec": 54
    },
    {
      "stop_id": "5290",
      "name": "Šeškinė",
      "lat": 54.70976,
      "lon": 25.25213,
      "avg_gap_sec": 54
    },
    {
      "stop_id": "6653",
      "name": "Žemynos st.",
      "lat": 54.72665,
      "lon": 25.23398,
      "avg_gap_sec": 54
    },
    {
      "stop_id": "5060",
      "name": "Taikos st.",
      "lat": 54.7206,
      "lon": 25.22263,
      "avg_gap_sec": 54
    },
    {
      "stop_id": "18375",
      "name": "Oro uostas",
      "lat": 54.64396,
      "lon": 25.27959,
      "avg_gap_sec": 54
    },
    {
      "stop_id": "5258",
      "name": "Kražių st.",
      "lat": 54.69172,
      "lon": 25.27116,
      "avg_gap_sec": 55
    },
    {
      "stop_id": "6497",
      "name": "Kalvarijos",
      "lat": 54.73997,
      "lon": 25.27677,
      "avg_gap_sec": 55
    },
    {
      "stop_id": "5200",
      "name": "Naujininkai",
      "lat": 54.66275,
      "lon": 25.27418,
      "avg_gap_sec": 55
    },
    {
      "stop_id": "5117",
      "name": "Nemenčinės plentas",
      "lat": 54.72385,
      "lon": 25.32007,
      "avg_gap_sec": 56
    },
    {
      "stop_id": "5257",
      "name": "Kražių st.",
      "lat": 54.69179,
      "lon": 25.27091,
      "avg_gap_sec": 56
    },
    {
      "stop_id": "5334",
      "name": "Islandijos st.",
      "lat": 54.685,
      "lon": 25.27641,
      "avg_gap_sec": 56
    },
    {
      "stop_id": "6526",
      "name": "Santariškės",
      "lat": 54.752,
      "lon": 25.27979,
      "avg_gap_sec": 56
    },
    {
      "stop_id": "5149",
      "name": "Žirmūnų seniūnija",
      "lat": 54.7219,
      "lon": 25.30071,
      "avg_gap_sec": 57
    },
    {
      "stop_id": "5848",
      "name": "Jono Kazlausko st.",
      "lat": 54.72241,
      "lon": 25.28381,
      "avg_gap_sec": 57
    },
    {
      "stop_id": "7831",
      "name": "Vaikų ligoninė",
      "lat": 54.75551,
      "lon": 25.28054,
      "avg_gap_sec": 57
    },
    {
      "stop_id": "5836",
      "name": "Baltupiai",
      "lat": 54.72688,
      "lon": 25.28001,
      "avg_gap_sec": 57
    },
    {
      "stop_id": "5266",
      "name": "Mikalojaus Konstantino Čiurlionio st.",
      "lat": 54.68082,
      "lon": 25.26548,
      "avg_gap_sec": 57
    },
    {
      "stop_id": "5272",
      "name": "Taraso Ševčenkos st.",
      "lat": 54.67694,
      "lon": 25.26749,
      "avg_gap_sec": 57
    },
    {
      "stop_id": "5088",
      "name": "Šiaurės miestelis",
      "lat": 54.71083,
      "lon": 25.30465,
      "avg_gap_sec": 58
    },
    {
      "stop_id": "5846",
      "name": "Jono Kazlausko st.",
      "lat": 54.72145,
      "lon": 25.28502,
      "avg_gap_sec": 58
    },
    {
      "stop_id": "5819",
      "name": "Petro Vileišio st.",
      "lat": 54.70165,
      "lon": 25.30922,
      "avg_gap_sec": 59
    },
    {
      "stop_id": "5820",
      "name": "Leono Sapiegos st.",
      "lat": 54.6963,
      "lon": 25.30809,
      "avg_gap_sec": 59
    },
    {
      "stop_id": "5166",
      "name": "Vienaragių st.",
      "lat": 54.67191,
      "lon": 25.27022,
      "avg_gap_sec": 59
    },
    {
      "stop_id": "5168",
      "name": "Vienaragių st.",
      "lat": 54.67262,
      "lon": 25.26932,
      "avg_gap_sec": 60
    },
    {
      "stop_id": "5861",
      "name": "Pramogų arena",
      "lat": 54.71626,
      "lon": 25.28694,
      "avg_gap_sec": 60
    },
    {
      "stop_id": "5818",
      "name": "Šilo tiltas",
      "lat": 54.70447,
      "lon": 25.31024,
      "avg_gap_sec": 61
    },
    {
      "stop_id": "5249",
      "name": "Operos ir baleto teatras",
      "lat": 54.69123,
      "lon": 25.27574,
      "avg_gap_sec": 61
    },
    {
      "stop_id": "7589",
      "name": "Povilo Lukšio st.",
      "lat": 54.71072,
      "lon": 25.30239,
      "avg_gap_sec": 61
    },
    {
      "stop_id": "5826",
      "name": "Leono Sapiegos st.",
      "lat": 54.69697,
      "lon": 25.30873,
      "avg_gap_sec": 62
    },
    {
      "stop_id": "6702",
      "name": "Petro Vileišio st.",
      "lat": 54.70313,
      "lon": 25.31002,
      "avg_gap_sec": 62
    },
    {
      "stop_id": "1004",
      "name": "Televizijos bokštas",
      "lat": 54.69092,
      "lon": 25.21486,
      "avg_gap_sec": 62
    },
    {
      "stop_id": "5667",
      "name": "Lvivo st.",
      "lat": 54.69448,
      "lon": 25.28276,
      "avg_gap_sec": 62
    },
    {
      "stop_id": "6842",
      "name": "Vingis",
      "lat": 54.67754,
      "lon": 25.25555,
      "avg_gap_sec": 63
    },
    {
      "stop_id": "5580",
      "name": "Simono Konarskio st.",
      "lat": 54.67947,
      "lon": 25.25932,
      "avg_gap_sec": 63
    },
    {
      "stop_id": "6667",
      "name": "Žirmūnai",
      "lat": 54.71666,
      "lon": 25.30545,
      "avg_gap_sec": 63
    },
    {
      "stop_id": "5086",
      "name": "Kareivių st.",
      "lat": 54.71859,
      "lon": 25.30393,
      "avg_gap_sec": 63
    },
    {
      "stop_id": "6671",
      "name": "Šaltinėlio st.",
      "lat": 54.72541,
      "lon": 25.29826,
      "avg_gap_sec": 63
    },
    {
      "stop_id": "5505",
      "name": "Žirmūnų žiedas",
      "lat": 54.72666,
      "lon": 25.2971,
      "avg_gap_sec": 63
    },
    {
      "stop_id": "5579",
      "name": "Simono Konarskio st.",
      "lat": 54.67986,
      "lon": 25.25964,
      "avg_gap_sec": 64
    },
    {
      "stop_id": "6343",
      "name": "Vingis",
      "lat": 54.67719,
      "lon": 25.25438,
      "avg_gap_sec": 64
    },
    {
      "stop_id": "5606",
      "name": "Šiaurės miestelis",
      "lat": 54.71182,
      "lon": 25.30509,
      "avg_gap_sec": 64
    },
    {
      "stop_id": "5087",
      "name": "Žirmūnai",
      "lat": 54.71595,
      "lon": 25.30509,
      "avg_gap_sec": 64
    },
    {
      "stop_id": "5214",
      "name": "Šeškinė",
      "lat": 54.70963,
      "lon": 25.25157,
      "avg_gap_sec": 64
    },
    {
      "stop_id": "5140",
      "name": "Taikos st.",
      "lat": 54.72159,
      "lon": 25.22279,
      "avg_gap_sec": 64
    },
    {
      "stop_id": "7573",
      "name": "Stotis",
      "lat": 54.6714,
      "lon": 25.283,
      "avg_gap_sec": 64
    },
    {
      "stop_id": "5067",
      "name": "Rygos st.",
      "lat": 54.71687,
      "lon": 25.23153,
      "avg_gap_sec": 65
    },
    {
      "stop_id": "5656",
      "name": "Televizijos bokštas",
      "lat": 54.68996,
      "lon": 25.2126,
      "avg_gap_sec": 66
    },
    {
      "stop_id": "6481",
      "name": "Vilniaus rajono poliklinika",
      "lat": 54.72332,
      "lon": 25.234,
      "avg_gap_sec": 66
    },
    {
      "stop_id": "6925",
      "name": "Medeinos st.",
      "lat": 54.72967,
      "lon": 25.21902,
      "avg_gap_sec": 66
    },
    {
      "stop_id": "5173",
      "name": "Prūsų st.",
      "lat": 54.66522,
      "lon": 25.2728,
      "avg_gap_sec": 66
    },
    {
      "stop_id": "687",
      "name": "Medeinos st.",
      "lat": 54.72871,
      "lon": 25.21815,
      "avg_gap_sec": 67
    },
    {
      "stop_id": "1076",
      "name": "Valkininkų st.",
      "lat": 54.64372,
      "lon": 25.20184,
      "avg_gap_sec": 67
    },
    {
      "stop_id": "5508",
      "name": "Šaltinėlio st.",
      "lat": 54.72657,
      "lon": 25.29674,
      "avg_gap_sec": 67
    },
    {
      "stop_id": "6041",
      "name": "Genių st.",
      "lat": 54.68827,
      "lon": 25.41255,
      "avg_gap_sec": 69
    },
    {
      "stop_id": "6523",
      "name": "Žemynos st.",
      "lat": 54.72576,
      "lon": 25.23344,
      "avg_gap_sec": 69
    },
    {
      "stop_id": "6482",
      "name": "Vilniaus rajono poliklinika",
      "lat": 54.72281,
      "lon": 25.23343,
      "avg_gap_sec": 69
    },
    {
      "stop_id": "5546",
      "name": "Baldai",
      "lat": 54.65066,
      "lon": 25.21825,
      "avg_gap_sec": 69
    },
    {
      "stop_id": "5542",
      "name": "Vilkpėdės st.",
      "lat": 54.66478,
      "lon": 25.23679,
      "avg_gap_sec": 69
    },
    {
      "stop_id": "5154",
      "name": "Žirmūnų seniūnija",
      "lat": 54.72236,
      "lon": 25.29994,
      "avg_gap_sec": 70
    },
    {
      "stop_id": "6668",
      "name": "Kareivių st.",
      "lat": 54.71934,
      "lon": 25.30356,
      "avg_gap_sec": 70
    },
    {
      "stop_id": "6040",
      "name": "Genių st.",
      "lat": 54.68798,
      "lon": 25.41324,
      "avg_gap_sec": 70
    },
    {
      "stop_id": "6851",
      "name": "Sausupio st.",
      "lat": 54.64722,
      "lon": 25.21217,
      "avg_gap_sec": 70
    },
    {
      "stop_id": "9384",
      "name": "Pakalniškių st.",
      "lat": 54.65453,
      "lon": 25.22513,
      "avg_gap_sec": 70
    },
    {
      "stop_id": "857",
      "name": "Riovonys",
      "lat": 54.65967,
      "lon": 25.23359,
      "avg_gap_sec": 70
    },
    {
      "stop_id": "5594",
      "name": "Ūmėdžių st.",
      "lat": 54.64262,
      "lon": 25.20425,
      "avg_gap_sec": 70
    },
    {
      "stop_id": "6042",
      "name": "Respublikinė psichiatrijos ligoninė",
      "lat": 54.68563,
      "lon": 25.41933,
      "avg_gap_sec": 71
    },
    {
      "stop_id": "5936",
      "name": "Pamėnkalnio st.",
      "lat": 54.68784,
      "lon": 25.26659,
      "avg_gap_sec": 71
    },
    {
      "stop_id": "5588",
      "name": "Baldai",
      "lat": 54.64983,
      "lon": 25.21614,
      "avg_gap_sec": 71
    },
    {
      "stop_id": "5620",
      "name": "Viršuliškės",
      "lat": 54.70683,
      "lon": 25.22623,
      "avg_gap_sec": 71
    },
    {
      "stop_id": "15167",
      "name": "Povilo Lukšio st.",
      "lat": 54.71097,
      "lon": 25.30067,
      "avg_gap_sec": 71
    },
    {
      "stop_id": "5483",
      "name": "Antakalnio žiedas",
      "lat": 54.72232,
      "lon": 25.31887,
      "avg_gap_sec": 71
    },
    {
      "stop_id": "5811",
      "name": "Liongino Baliukevičiaus - Dzūko st.",
      "lat": 54.734,
      "lon": 25.25311,
      "avg_gap_sec": 72
    },
    {
      "stop_id": "6846",
      "name": "Pramogų arena",
      "lat": 54.71504,
      "lon": 25.28821,
      "avg_gap_sec": 72
    },
    {
      "stop_id": "6073",
      "name": "Naujosios Vilnios žiedas",
      "lat": 54.68558,
      "lon": 25.42811,
      "avg_gap_sec": 72
    },
    {
      "stop_id": "6045",
      "name": "Parko st.",
      "lat": 54.68561,
      "lon": 25.42449,
      "avg_gap_sec": 72
    },
    {
      "stop_id": "6043",
      "name": "Respublikinė psichiatrijos ligoninė",
      "lat": 54.68594,
      "lon": 25.41868,
      "avg_gap_sec": 72
    },
    {
      "stop_id": "5937",
      "name": "Jokūbo Jasinskio st.",
      "lat": 54.68828,
      "lon": 25.26352,
      "avg_gap_sec": 72
    },
    {
      "stop_id": "5543",
      "name": "Vilkpėdės st.",
      "lat": 54.66331,
      "lon": 25.23548,
      "avg_gap_sec": 72
    },
    {
      "stop_id": "5573",
      "name": "Riovonys",
      "lat": 54.65893,
      "lon": 25.23233,
      "avg_gap_sec": 72
    },
    {
      "stop_id": "5587",
      "name": "Pakalniškių st.",
      "lat": 54.65416,
      "lon": 25.22384,
      "avg_gap_sec": 72
    },
    {
      "stop_id": "5554",
      "name": "Žemieji Paneriai",
      "lat": 54.64608,
      "lon": 25.20948,
      "avg_gap_sec": 72
    },
    {
      "stop_id": "790",
      "name": "LITEXPO",
      "lat": 54.67561,
      "lon": 25.2225,
      "avg_gap_sec": 72
    },
    {
      "stop_id": "6044",
      "name": "Parko st.",
      "lat": 54.6855,
      "lon": 25.4261,
      "avg_gap_sec": 73
    },
    {
      "stop_id": "5220",
      "name": "Saltoniškės",
      "lat": 54.70123,
      "lon": 25.26289,
      "avg_gap_sec": 73
    },
    {
      "stop_id": "5175",
      "name": "Naujininkai",
      "lat": 54.66084,
      "lon": 25.2732,
      "avg_gap_sec": 73
    },
    {
      "stop_id": "5156",
      "name": "Stotis",
      "lat": 54.67025,
      "lon": 25.28349,
      "avg_gap_sec": 73
    },
    {
      "stop_id": "6333",
      "name": "LITEXPO",
      "lat": 54.67577,
      "lon": 25.22186,
      "avg_gap_sec": 74
    },
    {
      "stop_id": "6338",
      "name": "Eigulių st.",
      "lat": 54.66935,
      "lon": 25.23571,
      "avg_gap_sec": 75
    },
    {
      "stop_id": "6597",
      "name": "Spaudos rūmai",
      "lat": 54.70361,
      "lon": 25.22353,
      "avg_gap_sec": 75
    },
    {
      "stop_id": "7382",
      "name": "Nacionalinė dailės galerija",
      "lat": 54.69793,
      "lon": 25.27003,
      "avg_gap_sec": 75
    },
    {
      "stop_id": "6432",
      "name": "Sėlių st.",
      "lat": 54.6984,
      "lon": 25.24868,
      "avg_gap_sec": 76
    },
    {
      "stop_id": "6587",
      "name": "Kaukaro st.",
      "lat": 54.70665,
      "lon": 25.21577,
      "avg_gap_sec": 76
    },
    {
      "stop_id": "6854",
      "name": "Prūsų st.",
      "lat": 54.66505,
      "lon": 25.27316,
      "avg_gap_sec": 76
    },
    {
      "stop_id": "6582",
      "name": "Lūžiai",
      "lat": 54.71164,
      "lon": 25.21772,
      "avg_gap_sec": 77
    },
    {
      "stop_id": "6337",
      "name": "Eigulių st.",
      "lat": 54.669,
      "lon": 25.23547,
      "avg_gap_sec": 78
    },
    {
      "stop_id": "6634",
      "name": "Rugių st.",
      "lat": 54.73801,
      "lon": 25.26928,
      "avg_gap_sec": 78
    },
    {
      "stop_id": "5131",
      "name": "Pramogų arena",
      "lat": 54.71508,
      "lon": 25.28573,
      "avg_gap_sec": 78
    },
    {
      "stop_id": "8463",
      "name": "Licėjus",
      "lat": 54.71314,
      "lon": 25.27692,
      "avg_gap_sec": 78
    },
    {
      "stop_id": "6650",
      "name": "Aguonų st.",
      "lat": 54.67284,
      "lon": 25.27736,
      "avg_gap_sec": 78
    },
    {
      "stop_id": "6648",
      "name": "Lazdynai",
      "lat": 54.67926,
      "lon": 25.21329,
      "avg_gap_sec": 78
    },
    {
      "stop_id": "6472",
      "name": "Viršuliškės",
      "lat": 54.70849,
      "lon": 25.22674,
      "avg_gap_sec": 78
    },
    {
      "stop_id": "6633",
      "name": "Rugių st.",
      "lat": 54.73819,
      "lon": 25.27044,
      "avg_gap_sec": 79
    },
    {
      "stop_id": "6461",
      "name": "Lazdynai",
      "lat": 54.67891,
      "lon": 25.21331,
      "avg_gap_sec": 80
    },
    {
      "stop_id": "6591",
      "name": "Troleibusų parkas",
      "lat": 54.70363,
      "lon": 25.2194,
      "avg_gap_sec": 80
    },
    {
      "stop_id": "5080",
      "name": "Licėjus",
      "lat": 54.71305,
      "lon": 25.27899,
      "avg_gap_sec": 80
    },
    {
      "stop_id": "6581",
      "name": "Lūžiai",
      "lat": 54.7108,
      "lon": 25.21661,
      "avg_gap_sec": 80
    },
    {
      "stop_id": "6588",
      "name": "Kaukaro st.",
      "lat": 54.70555,
      "lon": 25.21579,
      "avg_gap_sec": 80
    },
    {
      "stop_id": "5881",
      "name": "Jokūbo Jasinskio st.",
      "lat": 54.68812,
      "lon": 25.26329,
      "avg_gap_sec": 80
    },
    {
      "stop_id": "6397",
      "name": "Švietimo akademija",
      "lat": 54.6983,
      "lon": 25.26121,
      "avg_gap_sec": 80
    },
    {
      "stop_id": "6404",
      "name": "Švietimo akademija",
      "lat": 54.6987,
      "lon": 25.26133,
      "avg_gap_sec": 80
    },
    {
      "stop_id": "5693",
      "name": "Architektų st.",
      "lat": 54.67343,
      "lon": 25.21451,
      "avg_gap_sec": 80
    },
    {
      "stop_id": "6580",
      "name": "Justiniškės",
      "lat": 54.71652,
      "lon": 25.22085,
      "avg_gap_sec": 81
    },
    {
      "stop_id": "7414",
      "name": "Naujininkai",
      "lat": 54.66192,
      "lon": 25.2737,
      "avg_gap_sec": 81
    },
    {
      "stop_id": "6365",
      "name": "Statybininkų st.",
      "lat": 54.67274,
      "lon": 25.25565,
      "avg_gap_sec": 81
    },
    {
      "stop_id": "5810",
      "name": "Liongino Baliukevičiaus - Dzūko st.",
      "lat": 54.73376,
      "lon": 25.25421,
      "avg_gap_sec": 82
    },
    {
      "stop_id": "5815",
      "name": "Mykolo Romerio universitetas",
      "lat": 54.73531,
      "lon": 25.25976,
      "avg_gap_sec": 82
    },
    {
      "stop_id": "6438",
      "name": "Liubarto tiltas",
      "lat": 54.68908,
      "lon": 25.25574,
      "avg_gap_sec": 82
    },
    {
      "stop_id": "6435",
      "name": "Latvių st.",
      "lat": 54.69433,
      "lon": 25.25075,
      "avg_gap_sec": 82
    },
    {
      "stop_id": "8275",
      "name": "Pašilaičių žiedas",
      "lat": 54.72842,
      "lon": 25.2343,
      "avg_gap_sec": 82
    },
    {
      "stop_id": "5814",
      "name": "Mykolo Romerio universitetas",
      "lat": 54.73517,
      "lon": 25.25795,
      "avg_gap_sec": 83
    },
    {
      "stop_id": "6913",
      "name": "Pijaus Žadeikos st.",
      "lat": 54.73504,
      "lon": 25.24753,
      "avg_gap_sec": 84
    },
    {
      "stop_id": "5141",
      "name": "Sūduvių st.",
      "lat": 54.72646,
      "lon": 25.21906,
      "avg_gap_sec": 84
    },
    {
      "stop_id": "6477",
      "name": "Rygos st.",
      "lat": 54.7156,
      "lon": 25.23019,
      "avg_gap_sec": 84
    },
    {
      "stop_id": "6225",
      "name": "Tremtinių st.",
      "lat": 54.6926,
      "lon": 25.41063,
      "avg_gap_sec": 84
    },
    {
      "stop_id": "7017",
      "name": "Šeškinės kalvos",
      "lat": 54.71109,
      "lon": 25.25819,
      "avg_gap_sec": 85
    },
    {
      "stop_id": "6436",
      "name": "Kęstučio st.",
      "lat": 54.69121,
      "lon": 25.25158,
      "avg_gap_sec": 85
    },
    {
      "stop_id": "6366",
      "name": "Statybininkų st.",
      "lat": 54.67135,
      "lon": 25.25735,
      "avg_gap_sec": 85
    },
    {
      "stop_id": "1017",
      "name": "Antakalnio žiedas",
      "lat": 54.72291,
      "lon": 25.31872,
      "avg_gap_sec": 85
    },
    {
      "stop_id": "7444",
      "name": "Naujosios Vilnios žiedas",
      "lat": 54.68543,
      "lon": 25.42889,
      "avg_gap_sec": 86
    },
    {
      "stop_id": "949",
      "name": "Sūduvių st.",
      "lat": 54.72563,
      "lon": 25.21922,
      "avg_gap_sec": 86
    },
    {
      "stop_id": "542",
      "name": "Pumpėnų st.",
      "lat": 54.72239,
      "lon": 25.22192,
      "avg_gap_sec": 86
    },
    {
      "stop_id": "5160",
      "name": "Aguonų st.",
      "lat": 54.67263,
      "lon": 25.27852,
      "avg_gap_sec": 86
    },
    {
      "stop_id": "6660",
      "name": "Šeimyniškių st.",
      "lat": 54.69556,
      "lon": 25.29687,
      "avg_gap_sec": 87
    },
    {
      "stop_id": "6918",
      "name": "Pamiškė",
      "lat": 54.73041,
      "lon": 25.2549,
      "avg_gap_sec": 87
    },
    {
      "stop_id": "6487",
      "name": "Baltupiai",
      "lat": 54.72828,
      "lon": 25.28013,
      "avg_gap_sec": 87
    },
    {
      "stop_id": "677",
      "name": "Lvivo st.",
      "lat": 54.69457,
      "lon": 25.28387,
      "avg_gap_sec": 87
    },
    {
      "stop_id": "6503",
      "name": "Žaliųjų Ežerų st.",
      "lat": 54.74855,
      "lon": 25.27913,
      "avg_gap_sec": 88
    },
    {
      "stop_id": "6929",
      "name": "Gelvonų st.",
      "lat": 54.71838,
      "lon": 25.25767,
      "avg_gap_sec": 88
    },
    {
      "stop_id": "6926",
      "name": "Jovaro st.",
      "lat": 54.72384,
      "lon": 25.25396,
      "avg_gap_sec": 88
    },
    {
      "stop_id": "6922",
      "name": "Simono Stanevičiaus st.",
      "lat": 54.7261,
      "lon": 25.25418,
      "avg_gap_sec": 88
    },
    {
      "stop_id": "6437",
      "name": "Kęstučio st.",
      "lat": 54.68948,
      "lon": 25.2519,
      "avg_gap_sec": 88
    },
    {
      "stop_id": "5512",
      "name": "Fabijoniškių žiedas",
      "lat": 54.74009,
      "lon": 25.24062,
      "avg_gap_sec": 88
    },
    {
      "stop_id": "6494",
      "name": "Kalvarijos",
      "lat": 54.73854,
      "lon": 25.27686,
      "avg_gap_sec": 90
    },
    {
      "stop_id": "6430",
      "name": "Žvėrynas",
      "lat": 54.69872,
      "lon": 25.24565,
      "avg_gap_sec": 90
    },
    {
      "stop_id": "6433",
      "name": "Sėlių st.",
      "lat": 54.69744,
      "lon": 25.24977,
      "avg_gap_sec": 90
    },
    {
      "stop_id": "6434",
      "name": "Latvių st.",
      "lat": 54.69385,
      "lon": 25.25072,
      "avg_gap_sec": 90
    },
    {
      "stop_id": "18852",
      "name": "Liubarto tiltas",
      "lat": 54.68889,
      "lon": 25.25543,
      "avg_gap_sec": 90
    },
    {
      "stop_id": "6921",
      "name": "Simono Stanevičiaus st.",
      "lat": 54.7252,
      "lon": 25.25372,
      "avg_gap_sec": 91
    },
    {
      "stop_id": "6924",
      "name": "Jovaro st.",
      "lat": 54.72287,
      "lon": 25.25407,
      "avg_gap_sec": 91
    },
    {
      "stop_id": "6928",
      "name": "Gelvonų st.",
      "lat": 54.71764,
      "lon": 25.25763,
      "avg_gap_sec": 91
    },
    {
      "stop_id": "5400",
      "name": "Tremtinių st.",
      "lat": 54.6929,
      "lon": 25.40981,
      "avg_gap_sec": 91
    },
    {
      "stop_id": "6484",
      "name": "Pašilaičių žiedas",
      "lat": 54.72773,
      "lon": 25.23387,
      "avg_gap_sec": 91
    },
    {
      "stop_id": "8264",
      "name": "Stotis",
      "lat": 54.67115,
      "lon": 25.28513,
      "avg_gap_sec": 91
    },
    {
      "stop_id": "7896",
      "name": "Jurgio Baltrušaičio st.",
      "lat": 54.72934,
      "lon": 25.23892,
      "avg_gap_sec": 91
    },
    {
      "stop_id": "5452",
      "name": "Šeškinės poliklinika",
      "lat": 54.71545,
      "lon": 25.24715,
      "avg_gap_sec": 91
    },
    {
      "stop_id": "6318",
      "name": "Lazdynai",
      "lat": 54.67778,
      "lon": 25.21233,
      "avg_gap_sec": 91
    },
    {
      "stop_id": "5451",
      "name": "Igno Šeiniaus st.",
      "lat": 54.72179,
      "lon": 25.24353,
      "avg_gap_sec": 92
    },
    {
      "stop_id": "5813",
      "name": "Liongino Baliukevičiaus - Dzūko st.",
      "lat": 54.73313,
      "lon": 25.25369,
      "avg_gap_sec": 93
    },
    {
      "stop_id": "986",
      "name": "Šeškinės poliklinika",
      "lat": 54.71606,
      "lon": 25.24745,
      "avg_gap_sec": 93
    },
    {
      "stop_id": "4388",
      "name": "Igno Šeiniaus st.",
      "lat": 54.72146,
      "lon": 25.24426,
      "avg_gap_sec": 93
    },
    {
      "stop_id": "8716",
      "name": "Vaikų ligoninė",
      "lat": 54.75613,
      "lon": 25.28085,
      "avg_gap_sec": 94
    },
    {
      "stop_id": "6917",
      "name": "Pamiškė",
      "lat": 54.72958,
      "lon": 25.25452,
      "avg_gap_sec": 94
    },
    {
      "stop_id": "855",
      "name": "Rygos st.",
      "lat": 54.71575,
      "lon": 25.23211,
      "avg_gap_sec": 94
    },
    {
      "stop_id": "7897",
      "name": "Jurgio Baltrušaičio st.",
      "lat": 54.72903,
      "lon": 25.23961,
      "avg_gap_sec": 94
    },
    {
      "stop_id": "6933",
      "name": "Gelvonėlio st.",
      "lat": 54.71443,
      "lon": 25.25677,
      "avg_gap_sec": 95
    },
    {
      "stop_id": "5839",
      "name": "Naujakiemio st.",
      "lat": 54.72387,
      "lon": 25.28144,
      "avg_gap_sec": 96
    },
    {
      "stop_id": "393",
      "name": "Buivydiškių st.",
      "lat": 54.71394,
      "lon": 25.23743,
      "avg_gap_sec": 96
    },
    {
      "stop_id": "5167",
      "name": "Vienaragių st.",
      "lat": 54.6718,
      "lon": 25.26847,
      "avg_gap_sec": 96
    },
    {
      "stop_id": "7381",
      "name": "Nacionalinė dailės galerija",
      "lat": 54.69671,
      "lon": 25.27311,
      "avg_gap_sec": 96
    },
    {
      "stop_id": "394",
      "name": "Buivydiškių st.",
      "lat": 54.71322,
      "lon": 25.23789,
      "avg_gap_sec": 97
    },
    {
      "stop_id": "6937",
      "name": "Šeškinės kalvos",
      "lat": 54.71085,
      "lon": 25.25622,
      "avg_gap_sec": 97
    },
    {
      "stop_id": "946",
      "name": "Subačiaus st.",
      "lat": 54.67723,
      "lon": 25.30249,
      "avg_gap_sec": 97
    },
    {
      "stop_id": "7695",
      "name": "Gilužio st.",
      "lat": 54.70451,
      "lon": 25.17449,
      "avg_gap_sec": 98
    },
    {
      "stop_id": "6479",
      "name": "Čiobiškio st.",
      "lat": 54.71946,
      "lon": 25.23292,
      "avg_gap_sec": 98
    },
    {
      "stop_id": "7693",
      "name": "Bitėnų st.",
      "lat": 54.70178,
      "lon": 25.17195,
      "avg_gap_sec": 99
    },
    {
      "stop_id": "8269",
      "name": "Kaimelio st.",
      "lat": 54.73059,
      "lon": 25.24448,
      "avg_gap_sec": 99
    },
    {
      "stop_id": "5013",
      "name": "Šiaurės miestelis",
      "lat": 54.71139,
      "lon": 25.30392,
      "avg_gap_sec": 100
    },
    {
      "stop_id": "4991",
      "name": "Sietyno st.",
      "lat": 54.69967,
      "lon": 25.22116,
      "avg_gap_sec": 101
    },
    {
      "stop_id": "5812",
      "name": "Liongino Baliukevičiaus - Dzūko st.",
      "lat": 54.73329,
      "lon": 25.2521,
      "avg_gap_sec": 101
    },
    {
      "stop_id": "9153",
      "name": "Perkūno st.",
      "lat": 54.73936,
      "lon": 25.2272,
      "avg_gap_sec": 101
    },
    {
      "stop_id": "6362",
      "name": "Naujamiestis",
      "lat": 54.67043,
      "lon": 25.26121,
      "avg_gap_sec": 101
    },
    {
      "stop_id": "905",
      "name": "Siesikų st.",
      "lat": 54.70985,
      "lon": 25.24636,
      "avg_gap_sec": 101
    },
    {
      "stop_id": "7077",
      "name": "Pavilionys",
      "lat": 54.74197,
      "lon": 25.22351,
      "avg_gap_sec": 102
    },
    {
      "stop_id": "904",
      "name": "Siesikų st.",
      "lat": 54.7098,
      "lon": 25.24424,
      "avg_gap_sec": 102
    },
    {
      "stop_id": "5722",
      "name": "Spaudos rūmai",
      "lat": 54.70417,
      "lon": 25.22547,
      "avg_gap_sec": 102
    },
    {
      "stop_id": "4988",
      "name": "Piliakalnio st.",
      "lat": 54.69991,
      "lon": 25.21175,
      "avg_gap_sec": 103
    },
    {
      "stop_id": "7694",
      "name": "Bitėnų st.",
      "lat": 54.70169,
      "lon": 25.17235,
      "avg_gap_sec": 104
    },
    {
      "stop_id": "8934",
      "name": "Pilaitė",
      "lat": 54.70095,
      "lon": 25.20542,
      "avg_gap_sec": 104
    },
    {
      "stop_id": "4989",
      "name": "Piliakalnio st.",
      "lat": 54.69943,
      "lon": 25.21248,
      "avg_gap_sec": 104
    },
    {
      "stop_id": "5804",
      "name": "Kaimelio st.",
      "lat": 54.73066,
      "lon": 25.24621,
      "avg_gap_sec": 104
    },
    {
      "stop_id": "6363",
      "name": "Naujamiestis",
      "lat": 54.67049,
      "lon": 25.2626,
      "avg_gap_sec": 104
    },
    {
      "stop_id": "5362",
      "name": "Subačiaus st.",
      "lat": 54.67701,
      "lon": 25.30362,
      "avg_gap_sec": 104
    },
    {
      "stop_id": "4526",
      "name": "Gilužio st.",
      "lat": 54.704,
      "lon": 25.17438,
      "avg_gap_sec": 105
    },
    {
      "stop_id": "9614",
      "name": "Grigiškių žiedas",
      "lat": 54.67362,
      "lon": 25.08231,
      "avg_gap_sec": 107
    },
    {
      "stop_id": "6915",
      "name": "Pijaus Žadeikos st.",
      "lat": 54.73552,
      "lon": 25.24623,
      "avg_gap_sec": 108
    },
    {
      "stop_id": "6478",
      "name": "Čiobiškio st.",
      "lat": 54.71893,
      "lon": 25.232,
      "avg_gap_sec": 108
    },
    {
      "stop_id": "9152",
      "name": "Perkūno st.",
      "lat": 54.73936,
      "lon": 25.22774,
      "avg_gap_sec": 108
    },
    {
      "stop_id": "15639",
      "name": "Pavilionys",
      "lat": 54.74167,
      "lon": 25.22222,
      "avg_gap_sec": 108
    },
    {
      "stop_id": "15636",
      "name": "Perkūnkiemis",
      "lat": 54.73854,
      "lon": 25.21926,
      "avg_gap_sec": 108
    },
    {
      "stop_id": "15634",
      "name": "Perkūnkiemis",
      "lat": 54.73921,
      "lon": 25.22016,
      "avg_gap_sec": 109
    },
    {
      "stop_id": "5840",
      "name": "Naujakiemio st.",
      "lat": 54.72467,
      "lon": 25.28114,
      "avg_gap_sec": 110
    },
    {
      "stop_id": "16649",
      "name": "Santariškių žiedas",
      "lat": 54.76262,
      "lon": 25.2822,
      "avg_gap_sec": 111
    },
    {
      "stop_id": "6651",
      "name": "Pal. Jurgio Matulaičio bažnyčia",
      "lat": 54.7124,
      "lon": 25.22824,
      "avg_gap_sec": 111
    },
    {
      "stop_id": "5125",
      "name": "Kareivių st.",
      "lat": 54.71989,
      "lon": 25.30161,
      "avg_gap_sec": 111
    },
    {
      "stop_id": "6319",
      "name": "Žėručio st.",
      "lat": 54.67642,
      "lon": 25.20696,
      "avg_gap_sec": 112
    },
    {
      "stop_id": "6320",
      "name": "Lazdynų seniūnija",
      "lat": 54.67473,
      "lon": 25.20258,
      "avg_gap_sec": 112
    },
    {
      "stop_id": "5906",
      "name": "Žvėrynas",
      "lat": 54.69948,
      "lon": 25.2432,
      "avg_gap_sec": 112
    },
    {
      "stop_id": "814",
      "name": "Panorama",
      "lat": 54.69915,
      "lon": 25.25704,
      "avg_gap_sec": 114
    },
    {
      "stop_id": "437",
      "name": "Erfurto st.",
      "lat": 54.67363,
      "lon": 25.20114,
      "avg_gap_sec": 115
    },
    {
      "stop_id": "8060",
      "name": "Pilaitė",
      "lat": 54.70247,
      "lon": 25.20345,
      "avg_gap_sec": 115
    },
    {
      "stop_id": "1158",
      "name": "Fabijoniškių žiedas",
      "lat": 54.73906,
      "lon": 25.24147,
      "avg_gap_sec": 117
    },
    {
      "stop_id": "7830",
      "name": "Santariškių žiedas",
      "lat": 54.7637,
      "lon": 25.28215,
      "avg_gap_sec": 118
    },
    {
      "stop_id": "5539",
      "name": "Alberto Goštauto st.",
      "lat": 54.69456,
      "lon": 25.26747,
      "avg_gap_sec": 118
    },
    {
      "stop_id": "720",
      "name": "Miškiniai",
      "lat": 54.67119,
      "lon": 25.22725,
      "avg_gap_sec": 118
    },
    {
      "stop_id": "6398",
      "name": "Žvėrynas",
      "lat": 54.69938,
      "lon": 25.24499,
      "avg_gap_sec": 118
    },
    {
      "stop_id": "6396",
      "name": "Panorama",
      "lat": 54.69892,
      "lon": 25.25607,
      "avg_gap_sec": 118
    },
    {
      "stop_id": "5701",
      "name": "Ąžuolo st.",
      "lat": 54.67994,
      "lon": 25.21765,
      "avg_gap_sec": 121
    },
    {
      "stop_id": "721",
      "name": "Miškiniai",
      "lat": 54.67093,
      "lon": 25.22641,
      "avg_gap_sec": 121
    },
    {
      "stop_id": "5424",
      "name": "Rudens st.",
      "lat": 54.68599,
      "lon": 25.32358,
      "avg_gap_sec": 121
    },
    {
      "stop_id": "5704",
      "name": "Ryto st.",
      "lat": 54.68268,
      "lon": 25.21309,
      "avg_gap_sec": 122
    },
    {
      "stop_id": "5127",
      "name": "Verkių st.",
      "lat": 54.71687,
      "lon": 25.2936,
      "avg_gap_sec": 123
    },
    {
      "stop_id": "6571",
      "name": "Filaretų st.",
      "lat": 54.68473,
      "lon": 25.30917,
      "avg_gap_sec": 123
    },
    {
      "stop_id": "6574",
      "name": "Polocko st.",
      "lat": 54.6827,
      "lon": 25.31266,
      "avg_gap_sec": 123
    },
    {
      "stop_id": "6476",
      "name": "Pal. Jurgio Matulaičio bažnyčia",
      "lat": 54.71178,
      "lon": 25.22678,
      "avg_gap_sec": 123
    },
    {
      "stop_id": "7001",
      "name": "Justiniškės",
      "lat": 54.71676,
      "lon": 25.22203,
      "avg_gap_sec": 123
    },
    {
      "stop_id": "6847",
      "name": "Verkių st.",
      "lat": 54.71843,
      "lon": 25.29553,
      "avg_gap_sec": 124
    },
    {
      "stop_id": "449",
      "name": "Filaretų st.",
      "lat": 54.68532,
      "lon": 25.30853,
      "avg_gap_sec": 124
    },
    {
      "stop_id": "5443",
      "name": "Gedvydžių st.",
      "lat": 54.73413,
      "lon": 25.2342,
      "avg_gap_sec": 124
    },
    {
      "stop_id": "683",
      "name": "Mikalojaus Konstantino Čiurlionio st.",
      "lat": 54.6816,
      "lon": 25.26471,
      "avg_gap_sec": 124
    },
    {
      "stop_id": "5557",
      "name": "Valkininkų st.",
      "lat": 54.64406,
      "lon": 25.20256,
      "avg_gap_sec": 124
    },
    {
      "stop_id": "5372",
      "name": "Rudens st.",
      "lat": 54.6864,
      "lon": 25.32505,
      "avg_gap_sec": 126
    },
    {
      "stop_id": "5091",
      "name": "Šilo tiltas",
      "lat": 54.70519,
      "lon": 25.31007,
      "avg_gap_sec": 127
    },
    {
      "stop_id": "5137",
      "name": "Rygos st.",
      "lat": 54.71647,
      "lon": 25.22962,
      "avg_gap_sec": 127
    },
    {
      "stop_id": "5662",
      "name": "Šeimyniškių st.",
      "lat": 54.69566,
      "lon": 25.29616,
      "avg_gap_sec": 128
    },
    {
      "stop_id": "6565",
      "name": "Vasaros st.",
      "lat": 54.6913,
      "lon": 25.30471,
      "avg_gap_sec": 128
    },
    {
      "stop_id": "6572",
      "name": "Polocko st.",
      "lat": 54.68331,
      "lon": 25.31286,
      "avg_gap_sec": 128
    },
    {
      "stop_id": "5691",
      "name": "Šalnos st.",
      "lat": 54.67281,
      "lon": 25.20703,
      "avg_gap_sec": 128
    },
    {
      "stop_id": "5697",
      "name": "Riešutų st.",
      "lat": 54.67653,
      "lon": 25.21611,
      "avg_gap_sec": 128
    },
    {
      "stop_id": "6640",
      "name": "Kalvarijos",
      "lat": 54.73933,
      "lon": 25.27535,
      "avg_gap_sec": 130
    },
    {
      "stop_id": "348",
      "name": "Ateities st.",
      "lat": 54.736,
      "lon": 25.26599,
      "avg_gap_sec": 130
    },
    {
      "stop_id": "5664",
      "name": "Rinktinės st.",
      "lat": 54.69497,
      "lon": 25.28955,
      "avg_gap_sec": 130
    },
    {
      "stop_id": "481",
      "name": "Gedvydžių st.",
      "lat": 54.73463,
      "lon": 25.23419,
      "avg_gap_sec": 130
    },
    {
      "stop_id": "7342",
      "name": "Sietyno st.",
      "lat": 54.69893,
      "lon": 25.22087,
      "avg_gap_sec": 130
    },
    {
      "stop_id": "5180",
      "name": "Eišiškių plentas",
      "lat": 54.65129,
      "lon": 25.27177,
      "avg_gap_sec": 131
    },
    {
      "stop_id": "6614",
      "name": "Tolminkiemio st.",
      "lat": 54.70736,
      "lon": 25.18119,
      "avg_gap_sec": 131
    },
    {
      "stop_id": "6612",
      "name": "Karaliaučiaus st.",
      "lat": 54.7074,
      "lon": 25.17572,
      "avg_gap_sec": 131
    },
    {
      "stop_id": "5998",
      "name": "Žirnių st.",
      "lat": 54.65469,
      "lon": 25.30307,
      "avg_gap_sec": 132
    },
    {
      "stop_id": "6611",
      "name": "Karaliaučiaus st.",
      "lat": 54.70725,
      "lon": 25.17582,
      "avg_gap_sec": 132
    },
    {
      "stop_id": "6615",
      "name": "Tolminkiemio st.",
      "lat": 54.70721,
      "lon": 25.18009,
      "avg_gap_sec": 132
    },
    {
      "stop_id": "5519",
      "name": "Takas",
      "lat": 54.73416,
      "lon": 25.23594,
      "avg_gap_sec": 132
    },
    {
      "stop_id": "6462",
      "name": "Paukščių takas",
      "lat": 54.68085,
      "lon": 25.20922,
      "avg_gap_sec": 132
    },
    {
      "stop_id": "6873",
      "name": "Kareivių st.",
      "lat": 54.72062,
      "lon": 25.30316,
      "avg_gap_sec": 133
    },
    {
      "stop_id": "5182",
      "name": "Dariaus ir Girėno st.",
      "lat": 54.64719,
      "lon": 25.27313,
      "avg_gap_sec": 134
    },
    {
      "stop_id": "5518",
      "name": "Takas",
      "lat": 54.73296,
      "lon": 25.23689,
      "avg_gap_sec": 134
    },
    {
      "stop_id": "8336",
      "name": "Markučiai",
      "lat": 54.67437,
      "lon": 25.32209,
      "avg_gap_sec": 134
    },
    {
      "stop_id": "6356",
      "name": "Lukiškės",
      "lat": 54.6909,
      "lon": 25.27072,
      "avg_gap_sec": 134
    },
    {
      "stop_id": "5490",
      "name": "Lizdeikos st.",
      "lat": 54.7272,
      "lon": 25.31625,
      "avg_gap_sec": 135
    },
    {
      "stop_id": "5533",
      "name": "Studentų st.",
      "lat": 54.69729,
      "lon": 25.26327,
      "avg_gap_sec": 136
    },
    {
      "stop_id": "6990",
      "name": "Justiniškių žiedas",
      "lat": 54.70933,
      "lon": 25.21334,
      "avg_gap_sec": 136
    },
    {
      "stop_id": "6888",
      "name": "Rokantiškės",
      "lat": 54.70411,
      "lon": 25.36406,
      "avg_gap_sec": 137
    },
    {
      "stop_id": "5485",
      "name": "Antakalnio žiedas",
      "lat": 54.72274,
      "lon": 25.31912,
      "avg_gap_sec": 138
    },
    {
      "stop_id": "5476",
      "name": "Lizdeikos st.",
      "lat": 54.72728,
      "lon": 25.31552,
      "avg_gap_sec": 138
    },
    {
      "stop_id": "9967",
      "name": "Vilijos st.",
      "lat": 54.63484,
      "lon": 25.17254,
      "avg_gap_sec": 138
    },
    {
      "stop_id": "6798",
      "name": "Verkių rūmai",
      "lat": 54.75224,
      "lon": 25.29599,
      "avg_gap_sec": 138
    },
    {
      "stop_id": "6460",
      "name": "Paukščių takas",
      "lat": 54.68065,
      "lon": 25.20884,
      "avg_gap_sec": 139
    },
    {
      "stop_id": "16628",
      "name": "Petro Baublio st.",
      "lat": 54.75052,
      "lon": 25.28355,
      "avg_gap_sec": 139
    },
    {
      "stop_id": "5828",
      "name": "Ateities st.",
      "lat": 54.73707,
      "lon": 25.26672,
      "avg_gap_sec": 140
    },
    {
      "stop_id": "6729",
      "name": "Lelijų st.",
      "lat": 54.68973,
      "lon": 25.40104,
      "avg_gap_sec": 140
    },
    {
      "stop_id": "6727",
      "name": "Lelijų st.",
      "lat": 54.68949,
      "lon": 25.40021,
      "avg_gap_sec": 141
    },
    {
      "stop_id": "5855",
      "name": "Zarasų st.",
      "lat": 54.67658,
      "lon": 25.3094,
      "avg_gap_sec": 142
    },
    {
      "stop_id": "5702",
      "name": "Ąžuolo st.",
      "lat": 54.67934,
      "lon": 25.21701,
      "avg_gap_sec": 142
    },
    {
      "stop_id": "1115",
      "name": "Visoriai",
      "lat": 54.75781,
      "lon": 25.26474,
      "avg_gap_sec": 142
    },
    {
      "stop_id": "6934",
      "name": "Gelvonėlio st.",
      "lat": 54.71505,
      "lon": 25.25741,
      "avg_gap_sec": 144
    },
    {
      "stop_id": "5920",
      "name": "Atminties st.",
      "lat": 54.68674,
      "lon": 25.2065,
      "avg_gap_sec": 144
    },
    {
      "stop_id": "5923",
      "name": "Pasakų parkas",
      "lat": 54.68477,
      "lon": 25.20559,
      "avg_gap_sec": 144
    },
    {
      "stop_id": "3512",
      "name": "Šeškinės kalvos",
      "lat": 54.71157,
      "lon": 25.257,
      "avg_gap_sec": 146
    },
    {
      "stop_id": "5259",
      "name": "Vašingtono aikštė",
      "lat": 54.6916,
      "lon": 25.26987,
      "avg_gap_sec": 146
    },
    {
      "stop_id": "410",
      "name": "Dariaus ir Girėno st.",
      "lat": 54.64755,
      "lon": 25.27318,
      "avg_gap_sec": 147
    },
    {
      "stop_id": "5181",
      "name": "Eišiškių plentas",
      "lat": 54.65148,
      "lon": 25.27186,
      "avg_gap_sec": 147
    },
    {
      "stop_id": "5947",
      "name": "Liepkalnis",
      "lat": 54.66298,
      "lon": 25.30015,
      "avg_gap_sec": 147
    },
    {
      "stop_id": "5703",
      "name": "Ryto st.",
      "lat": 54.68215,
      "lon": 25.21371,
      "avg_gap_sec": 148
    },
    {
      "stop_id": "5946",
      "name": "Liepkalnis",
      "lat": 54.66287,
      "lon": 25.29995,
      "avg_gap_sec": 149
    },
    {
      "stop_id": "6410",
      "name": "Žemaitės st.",
      "lat": 54.67489,
      "lon": 25.25194,
      "avg_gap_sec": 151
    },
    {
      "stop_id": "5893",
      "name": "Bernardinų sodas",
      "lat": 54.68472,
      "lon": 25.29025,
      "avg_gap_sec": 151
    },
    {
      "stop_id": "5894",
      "name": "Dailės akademija",
      "lat": 54.68401,
      "lon": 25.29287,
      "avg_gap_sec": 152
    },
    {
      "stop_id": "5147",
      "name": "Autobusų parkas",
      "lat": 54.72216,
      "lon": 25.29669,
      "avg_gap_sec": 153
    },
    {
      "stop_id": "5355",
      "name": "Bazilijonų st.",
      "lat": 54.67408,
      "lon": 25.28657,
      "avg_gap_sec": 153
    },
    {
      "stop_id": "6475",
      "name": "Šaulių sąjunga",
      "lat": 54.70909,
      "lon": 25.22607,
      "avg_gap_sec": 153
    },
    {
      "stop_id": "5915",
      "name": "Karoliniškių poliklinika",
      "lat": 54.69283,
      "lon": 25.21416,
      "avg_gap_sec": 153
    },
    {
      "stop_id": "5919",
      "name": "Ugniagesių st.",
      "lat": 54.68951,
      "lon": 25.20904,
      "avg_gap_sec": 153
    },
    {
      "stop_id": "5665",
      "name": "Rinktinės st.",
      "lat": 54.69477,
      "lon": 25.28954,
      "avg_gap_sec": 156
    },
    {
      "stop_id": "5358",
      "name": "Aušros vartai",
      "lat": 54.67473,
      "lon": 25.29278,
      "avg_gap_sec": 156
    },
    {
      "stop_id": "6800",
      "name": "Ežerėliai",
      "lat": 54.76131,
      "lon": 25.30666,
      "avg_gap_sec": 157
    },
    {
      "stop_id": "6619",
      "name": "Papilėnų st.",
      "lat": 54.70683,
      "lon": 25.18821,
      "avg_gap_sec": 158
    },
    {
      "stop_id": "5924",
      "name": "Pasakų parkas",
      "lat": 54.68461,
      "lon": 25.20607,
      "avg_gap_sec": 158
    },
    {
      "stop_id": "351",
      "name": "Atminties st.",
      "lat": 54.68715,
      "lon": 25.20713,
      "avg_gap_sec": 159
    },
    {
      "stop_id": "7238",
      "name": "Arkikatedra",
      "lat": 54.68665,
      "lon": 25.28644,
      "avg_gap_sec": 160
    },
    {
      "stop_id": "6714",
      "name": "Aušros vartai",
      "lat": 54.67368,
      "lon": 25.28949,
      "avg_gap_sec": 160
    },
    {
      "stop_id": "1069",
      "name": "Vaikų kaimas",
      "lat": 54.70877,
      "lon": 25.24118,
      "avg_gap_sec": 162
    },
    {
      "stop_id": "5833",
      "name": "Didlaukio st.",
      "lat": 54.72903,
      "lon": 25.26926,
      "avg_gap_sec": 163
    },
    {
      "stop_id": "5822",
      "name": "Ateities st.",
      "lat": 54.73682,
      "lon": 25.26515,
      "avg_gap_sec": 163
    },
    {
      "stop_id": "16627",
      "name": "Petro Baublio st.",
      "lat": 54.75086,
      "lon": 25.28497,
      "avg_gap_sec": 163
    },
    {
      "stop_id": "6797",
      "name": "Verkių rūmai",
      "lat": 54.75236,
      "lon": 25.29645,
      "avg_gap_sec": 163
    },
    {
      "stop_id": "6788",
      "name": "Žalgirio st.",
      "lat": 54.70436,
      "lon": 25.28434,
      "avg_gap_sec": 164
    },
    {
      "stop_id": "6525",
      "name": "Žaliųjų Ežerų st.",
      "lat": 54.75062,
      "lon": 25.27982,
      "avg_gap_sec": 165
    },
    {
      "stop_id": "5945",
      "name": "Stadionas",
      "lat": 54.66848,
      "lon": 25.29639,
      "avg_gap_sec": 165
    },
    {
      "stop_id": "5942",
      "name": "Pelesos st.",
      "lat": 54.6714,
      "lon": 25.29175,
      "avg_gap_sec": 165
    },
    {
      "stop_id": "5834",
      "name": "Didlaukio st.",
      "lat": 54.72915,
      "lon": 25.27162,
      "avg_gap_sec": 168
    },
    {
      "stop_id": "6801",
      "name": "Ežerėliai",
      "lat": 54.76255,
      "lon": 25.31018,
      "avg_gap_sec": 169
    },
    {
      "stop_id": "7123",
      "name": "Užupio st.",
      "lat": 54.67994,
      "lon": 25.29236,
      "avg_gap_sec": 171
    },
    {
      "stop_id": "4267",
      "name": "Stotis",
      "lat": 54.67147,
      "lon": 25.28327,
      "avg_gap_sec": 171
    },
    {
      "stop_id": "18480",
      "name": "Žvėryno žiedas",
      "lat": 54.69833,
      "lon": 25.24528,
      "avg_gap_sec": 171
    },
    {
      "stop_id": "5944",
      "name": "Stadionas",
      "lat": 54.66756,
      "lon": 25.2971,
      "avg_gap_sec": 172
    },
    {
      "stop_id": "5835",
      "name": "Baltupiai",
      "lat": 54.72758,
      "lon": 25.27858,
      "avg_gap_sec": 174
    },
    {
      "stop_id": "16622",
      "name": "Lazdynėliai",
      "lat": 54.66261,
      "lon": 25.19196,
      "avg_gap_sec": 175
    },
    {
      "stop_id": "9081",
      "name": "Balsių mokykla",
      "lat": 54.78058,
      "lon": 25.3598,
      "avg_gap_sec": 175
    },
    {
      "stop_id": "596",
      "name": "Karoliniškių poliklinika",
      "lat": 54.69344,
      "lon": 25.21524,
      "avg_gap_sec": 175
    },
    {
      "stop_id": "5941",
      "name": "Pelesos st.",
      "lat": 54.67108,
      "lon": 25.29127,
      "avg_gap_sec": 176
    },
    {
      "stop_id": "6542",
      "name": "Trimitų st.",
      "lat": 54.70295,
      "lon": 25.28893,
      "avg_gap_sec": 178
    },
    {
      "stop_id": "6804",
      "name": "Verkių bendruomenės namai",
      "lat": 54.77002,
      "lon": 25.3265,
      "avg_gap_sec": 178
    },
    {
      "stop_id": "6400",
      "name": "Ugniagesių st.",
      "lat": 54.69021,
      "lon": 25.21068,
      "avg_gap_sec": 178
    },
    {
      "stop_id": "16581",
      "name": "Stotis",
      "lat": 54.67191,
      "lon": 25.28338,
      "avg_gap_sec": 181
    },
    {
      "stop_id": "6766",
      "name": "Juliaus Juzeliūno st.",
      "lat": 54.72918,
      "lon": 25.23568,
      "avg_gap_sec": 184
    },
    {
      "stop_id": "7245",
      "name": "Arkikatedra",
      "lat": 54.68667,
      "lon": 25.28675,
      "avg_gap_sec": 185
    },
    {
      "stop_id": "6179",
      "name": "Lazerių st.",
      "lat": 54.72949,
      "lon": 25.37465,
      "avg_gap_sec": 185
    },
    {
      "stop_id": "5428",
      "name": "Misionierių st.",
      "lat": 54.67662,
      "lon": 25.29652,
      "avg_gap_sec": 186
    },
    {
      "stop_id": "7331",
      "name": "Žygio st.",
      "lat": 54.7046,
      "lon": 25.28946,
      "avg_gap_sec": 187
    },
    {
      "stop_id": "9638",
      "name": "Ulonų st.",
      "lat": 54.70889,
      "lon": 25.29121,
      "avg_gap_sec": 188
    },
    {
      "stop_id": "5524",
      "name": "Algirdo st.",
      "lat": 54.68197,
      "lon": 25.2682,
      "avg_gap_sec": 188
    },
    {
      "stop_id": "5128",
      "name": "Pramogų arena",
      "lat": 54.71556,
      "lon": 25.28943,
      "avg_gap_sec": 189
    },
    {
      "stop_id": "8309",
      "name": "Burbiškės",
      "lat": 54.66671,
      "lon": 25.2531,
      "avg_gap_sec": 190
    },
    {
      "stop_id": "6803",
      "name": "Verkių bendruomenės namai",
      "lat": 54.77033,
      "lon": 25.32744,
      "avg_gap_sec": 191
    },
    {
      "stop_id": "6763",
      "name": "Sporto gimnazija",
      "lat": 54.73161,
      "lon": 25.24241,
      "avg_gap_sec": 192
    },
    {
      "stop_id": "10556",
      "name": "Žaliojo Visalaukio st.",
      "lat": 54.77863,
      "lon": 25.34044,
      "avg_gap_sec": 193
    },
    {
      "stop_id": "6940",
      "name": "Paberžės st.",
      "lat": 54.71616,
      "lon": 25.25481,
      "avg_gap_sec": 194
    },
    {
      "stop_id": "5212",
      "name": "Ukmergės st.",
      "lat": 54.71194,
      "lon": 25.24942,
      "avg_gap_sec": 195
    },
    {
      "stop_id": "7941",
      "name": "Burbiškės",
      "lat": 54.6668,
      "lon": 25.25275,
      "avg_gap_sec": 195
    },
    {
      "stop_id": "8312",
      "name": "Vilkpėdės žiedas",
      "lat": 54.66575,
      "lon": 25.24501,
      "avg_gap_sec": 195
    },
    {
      "stop_id": "17769",
      "name": "Smalinės st.",
      "lat": 54.70995,
      "lon": 25.18933,
      "avg_gap_sec": 195
    },
    {
      "stop_id": "407",
      "name": "Dailės akademija",
      "lat": 54.68212,
      "lon": 25.29297,
      "avg_gap_sec": 195
    },
    {
      "stop_id": "5892",
      "name": "Bernardinų sodas",
      "lat": 54.68497,
      "lon": 25.2911,
      "avg_gap_sec": 195
    },
    {
      "stop_id": "4898",
      "name": "Žvėryno žiedas",
      "lat": 54.69846,
      "lon": 25.2462,
      "avg_gap_sec": 195
    },
    {
      "stop_id": "5803",
      "name": "Kaimelio žiedas",
      "lat": 54.7316,
      "lon": 25.24446,
      "avg_gap_sec": 197
    },
    {
      "stop_id": "7124",
      "name": "Užupio st.",
      "lat": 54.67991,
      "lon": 25.29266,
      "avg_gap_sec": 197
    },
    {
      "stop_id": "9566",
      "name": "Šiaurės miestelis",
      "lat": 54.71119,
      "lon": 25.29938,
      "avg_gap_sec": 197
    },
    {
      "stop_id": "795",
      "name": "Deivių st.",
      "lat": 54.73562,
      "lon": 25.22905,
      "avg_gap_sec": 198
    },
    {
      "stop_id": "7809",
      "name": "Vėtrungių st.",
      "lat": 54.73729,
      "lon": 25.23245,
      "avg_gap_sec": 198
    },
    {
      "stop_id": "6353",
      "name": "Šiltnamių st.",
      "lat": 54.67106,
      "lon": 25.21418,
      "avg_gap_sec": 199
    },
    {
      "stop_id": "6351",
      "name": "Lazdynų ligoninė",
      "lat": 54.6705,
      "lon": 25.20809,
      "avg_gap_sec": 199
    },
    {
      "stop_id": "6295",
      "name": "Kauno plentas",
      "lat": 54.65424,
      "lon": 25.15088,
      "avg_gap_sec": 200
    },
    {
      "stop_id": "8311",
      "name": "Vilkpėdės žiedas",
      "lat": 54.66563,
      "lon": 25.24565,
      "avg_gap_sec": 201
    },
    {
      "stop_id": "6297",
      "name": "Gariūnai",
      "lat": 54.65892,
      "lon": 25.15913,
      "avg_gap_sec": 201
    },
    {
      "stop_id": "6857",
      "name": "Verkių Riešė",
      "lat": 54.77695,
      "lon": 25.33699,
      "avg_gap_sec": 201
    },
    {
      "stop_id": "7951",
      "name": "Pajautos st.",
      "lat": 54.71018,
      "lon": 25.17608,
      "avg_gap_sec": 202
    },
    {
      "stop_id": "6722",
      "name": "Pūčkoriai",
      "lat": 54.69145,
      "lon": 25.36641,
      "avg_gap_sec": 202
    },
    {
      "stop_id": "10244",
      "name": "Vaikų ligoninė",
      "lat": 54.75524,
      "lon": 25.28088,
      "avg_gap_sec": 203
    },
    {
      "stop_id": "6721",
      "name": "Pūčkoriai",
      "lat": 54.69112,
      "lon": 25.3673,
      "avg_gap_sec": 205
    },
    {
      "stop_id": "7948",
      "name": "Įsruties st.",
      "lat": 54.71045,
      "lon": 25.18122,
      "avg_gap_sec": 206
    },
    {
      "stop_id": "756",
      "name": "Oslo st.",
      "lat": 54.67016,
      "lon": 25.19759,
      "avg_gap_sec": 208
    },
    {
      "stop_id": "7716",
      "name": "Šumsko kryptis",
      "lat": 54.65889,
      "lon": 25.3644,
      "avg_gap_sec": 208
    },
    {
      "stop_id": "10554",
      "name": "Žaliojo Visalaukio st.",
      "lat": 54.7786,
      "lon": 25.34072,
      "avg_gap_sec": 209
    },
    {
      "stop_id": "370",
      "name": "Bajorų sodai",
      "lat": 54.75762,
      "lon": 25.25671,
      "avg_gap_sec": 210
    },
    {
      "stop_id": "5728",
      "name": "Fizikos institutas",
      "lat": 54.64212,
      "lon": 25.18254,
      "avg_gap_sec": 210
    },
    {
      "stop_id": "6609",
      "name": "Gariūnai",
      "lat": 54.65908,
      "lon": 25.16073,
      "avg_gap_sec": 212
    },
    {
      "stop_id": "4410",
      "name": "Vilijos st.",
      "lat": 54.63595,
      "lon": 25.17316,
      "avg_gap_sec": 214
    },
    {
      "stop_id": "5731",
      "name": "Lentvario st.",
      "lat": 54.63874,
      "lon": 25.17833,
      "avg_gap_sec": 214
    },
    {
      "stop_id": "6352",
      "name": "Šiltnamių st.",
      "lat": 54.67091,
      "lon": 25.21492,
      "avg_gap_sec": 215
    },
    {
      "stop_id": "3575",
      "name": "Vaidotai",
      "lat": 54.59876,
      "lon": 25.17635,
      "avg_gap_sec": 215
    },
    {
      "stop_id": "16703",
      "name": "Paukščių takas",
      "lat": 54.67972,
      "lon": 25.20699,
      "avg_gap_sec": 215
    },
    {
      "stop_id": "5672",
      "name": "Akacijų st.",
      "lat": 54.67792,
      "lon": 25.20181,
      "avg_gap_sec": 215
    },
    {
      "stop_id": "5732",
      "name": "Lentvario st.",
      "lat": 54.63836,
      "lon": 25.17726,
      "avg_gap_sec": 215
    },
    {
      "stop_id": "6856",
      "name": "Verkių Riešė",
      "lat": 54.77739,
      "lon": 25.33811,
      "avg_gap_sec": 215
    },
    {
      "stop_id": "9776",
      "name": "Galvės st.",
      "lat": 54.63247,
      "lon": 25.15096,
      "avg_gap_sec": 216
    },
    {
      "stop_id": "6723",
      "name": "Klinikų st.",
      "lat": 54.71134,
      "lon": 25.31669,
      "avg_gap_sec": 216
    },
    {
      "stop_id": "6310",
      "name": "Vandenvala",
      "lat": 54.66534,
      "lon": 25.1738,
      "avg_gap_sec": 217
    },
    {
      "stop_id": "16386",
      "name": "Viršilų st.",
      "lat": 54.7033,
      "lon": 25.21824,
      "avg_gap_sec": 220
    },
    {
      "stop_id": "6309",
      "name": "Vandenvala",
      "lat": 54.66539,
      "lon": 25.17311,
      "avg_gap_sec": 220
    },
    {
      "stop_id": "6121",
      "name": "Minsko plentas",
      "lat": 54.64501,
      "lon": 25.33736,
      "avg_gap_sec": 221
    },
    {
      "stop_id": "617",
      "name": "Kinologijos centras",
      "lat": 54.64925,
      "lon": 25.32053,
      "avg_gap_sec": 221
    },
    {
      "stop_id": "5738",
      "name": "Vilijos st.",
      "lat": 54.63557,
      "lon": 25.17174,
      "avg_gap_sec": 222
    },
    {
      "stop_id": "5742",
      "name": "Galvės st.",
      "lat": 54.63274,
      "lon": 25.1508,
      "avg_gap_sec": 223
    },
    {
      "stop_id": "6350",
      "name": "Lazdynų ligoninė",
      "lat": 54.67031,
      "lon": 25.20903,
      "avg_gap_sec": 225
    },
    {
      "stop_id": "7341",
      "name": "Erfurto st.",
      "lat": 54.67357,
      "lon": 25.20062,
      "avg_gap_sec": 225
    },
    {
      "stop_id": "8326",
      "name": "Akademijos st.",
      "lat": 54.75263,
      "lon": 25.27239,
      "avg_gap_sec": 225
    },
    {
      "stop_id": "9642",
      "name": "Skroblų st.",
      "lat": 54.66815,
      "lon": 25.2557,
      "avg_gap_sec": 228
    },
    {
      "stop_id": "1008",
      "name": "Titnago st.",
      "lat": 54.6497,
      "lon": 25.18613,
      "avg_gap_sec": 228
    },
    {
      "stop_id": "939",
      "name": "Stotis",
      "lat": 54.6711,
      "lon": 25.28443,
      "avg_gap_sec": 229
    },
    {
      "stop_id": "8327",
      "name": "Molėtų plentas",
      "lat": 54.74975,
      "lon": 25.2781,
      "avg_gap_sec": 230
    },
    {
      "stop_id": "5450",
      "name": "Stasio Lozoraičio st.",
      "lat": 54.72401,
      "lon": 25.24241,
      "avg_gap_sec": 232
    },
    {
      "stop_id": "6783",
      "name": "Molėtų plentas",
      "lat": 54.75031,
      "lon": 25.27754,
      "avg_gap_sec": 232
    },
    {
      "stop_id": "5570",
      "name": "Šaltupio st.",
      "lat": 54.64676,
      "lon": 25.19113,
      "avg_gap_sec": 232
    },
    {
      "stop_id": "616",
      "name": "Kinologijos centras",
      "lat": 54.64878,
      "lon": 25.32131,
      "avg_gap_sec": 233
    },
    {
      "stop_id": "5564",
      "name": "Valkininkų st.",
      "lat": 54.64395,
      "lon": 25.19972,
      "avg_gap_sec": 233
    },
    {
      "stop_id": "16977",
      "name": "Žirnių st.",
      "lat": 54.65394,
      "lon": 25.30397,
      "avg_gap_sec": 236
    },
    {
      "stop_id": "16453",
      "name": "Meškonių st.",
      "lat": 54.67992,
      "lon": 25.42,
      "avg_gap_sec": 236
    },
    {
      "stop_id": "5858",
      "name": "Vilnelės st.",
      "lat": 54.6749,
      "lon": 25.31879,
      "avg_gap_sec": 237
    },
    {
      "stop_id": "7052",
      "name": "Chemijos institutas",
      "lat": 54.75385,
      "lon": 25.26385,
      "avg_gap_sec": 237
    },
    {
      "stop_id": "5808",
      "name": "Antano Jonyno st.",
      "lat": 54.73156,
      "lon": 25.24893,
      "avg_gap_sec": 237
    },
    {
      "stop_id": "10360",
      "name": "Gynėjų st.",
      "lat": 54.69349,
      "lon": 25.26557,
      "avg_gap_sec": 237
    },
    {
      "stop_id": "7554",
      "name": "Jankiškių st.",
      "lat": 54.64506,
      "lon": 25.19522,
      "avg_gap_sec": 238
    },
    {
      "stop_id": "5534",
      "name": "Studentų st.",
      "lat": 54.69724,
      "lon": 25.2643,
      "avg_gap_sec": 240
    },
    {
      "stop_id": "5289",
      "name": "Saltoniškės",
      "lat": 54.70231,
      "lon": 25.26185,
      "avg_gap_sec": 242
    },
    {
      "stop_id": "6544",
      "name": "Mikalojaus Katkaus st.",
      "lat": 54.70009,
      "lon": 25.2929,
      "avg_gap_sec": 242
    },
    {
      "stop_id": "823",
      "name": "Stasio Lozoraičio st.",
      "lat": 54.7244,
      "lon": 25.24251,
      "avg_gap_sec": 242
    },
    {
      "stop_id": "6283",
      "name": "Liudvinava",
      "lat": 54.64705,
      "lon": 25.12837,
      "avg_gap_sec": 242
    },
    {
      "stop_id": "9640",
      "name": "Ulonų st.",
      "lat": 54.70921,
      "lon": 25.291,
      "avg_gap_sec": 242
    },
    {
      "stop_id": "7553",
      "name": "Jankiškių st.",
      "lat": 54.64537,
      "lon": 25.19468,
      "avg_gap_sec": 242
    },
    {
      "stop_id": "6492",
      "name": "Seminarija",
      "lat": 54.73576,
      "lon": 25.27801,
      "avg_gap_sec": 244
    },
    {
      "stop_id": "6489",
      "name": "Pušynas",
      "lat": 54.73328,
      "lon": 25.2788,
      "avg_gap_sec": 244
    },
    {
      "stop_id": "5925",
      "name": "Drujos st.",
      "lat": 54.67839,
      "lon": 25.31053,
      "avg_gap_sec": 244
    },
    {
      "stop_id": "9701",
      "name": "Skroblų st.",
      "lat": 54.66983,
      "lon": 25.25833,
      "avg_gap_sec": 244
    },
    {
      "stop_id": "5807",
      "name": "Antano Jonyno st.",
      "lat": 54.73137,
      "lon": 25.24744,
      "avg_gap_sec": 244
    },
    {
      "stop_id": "9565",
      "name": "Šiaurės miestelis",
      "lat": 54.71152,
      "lon": 25.29786,
      "avg_gap_sec": 244
    },
    {
      "stop_id": "9637",
      "name": "Jono Galvydžio st.",
      "lat": 54.71183,
      "lon": 25.29233,
      "avg_gap_sec": 244
    },
    {
      "stop_id": "1129",
      "name": "Naujoji Vilnia",
      "lat": 54.69523,
      "lon": 25.44039,
      "avg_gap_sec": 244
    },
    {
      "stop_id": "5854",
      "name": "Zarasų st.",
      "lat": 54.67624,
      "lon": 25.3104,
      "avg_gap_sec": 248
    },
    {
      "stop_id": "5857",
      "name": "Vilnelės st.",
      "lat": 54.67465,
      "lon": 25.31948,
      "avg_gap_sec": 248
    },
    {
      "stop_id": "1039",
      "name": "Ukmergės st.",
      "lat": 54.71245,
      "lon": 25.24974,
      "avg_gap_sec": 248
    },
    {
      "stop_id": "5571",
      "name": "Šaltupio st.",
      "lat": 54.64734,
      "lon": 25.19038,
      "avg_gap_sec": 248
    },
    {
      "stop_id": "16788",
      "name": "Titnago st.",
      "lat": 54.6503,
      "lon": 25.18546,
      "avg_gap_sec": 248
    },
    {
      "stop_id": "9561",
      "name": "Papilėnų st.",
      "lat": 54.70753,
      "lon": 25.18781,
      "avg_gap_sec": 250
    },
    {
      "stop_id": "4521",
      "name": "Bistryčios st.",
      "lat": 54.70839,
      "lon": 25.32956,
      "avg_gap_sec": 251
    },
    {
      "stop_id": "11046",
      "name": "Vieversių st.",
      "lat": 54.71065,
      "lon": 25.32032,
      "avg_gap_sec": 251
    },
    {
      "stop_id": "6282",
      "name": "Liudvinava",
      "lat": 54.64716,
      "lon": 25.12816,
      "avg_gap_sec": 251
    },
    {
      "stop_id": "7615",
      "name": "Raudonbalė",
      "lat": 54.74939,
      "lon": 25.18096,
      "avg_gap_sec": 252
    },
    {
      "stop_id": "6317",
      "name": "Lazdynai",
      "lat": 54.67761,
      "lon": 25.21259,
      "avg_gap_sec": 253
    },
    {
      "stop_id": "5498",
      "name": "Žalgirio st.",
      "lat": 54.7039,
      "lon": 25.28302,
      "avg_gap_sec": 253
    },
    {
      "stop_id": "6720",
      "name": "Klinikų st.",
      "lat": 54.71161,
      "lon": 25.31573,
      "avg_gap_sec": 253
    },
    {
      "stop_id": "8021",
      "name": "Krakiškės",
      "lat": 54.79522,
      "lon": 25.35003,
      "avg_gap_sec": 253
    },
    {
      "stop_id": "8022",
      "name": "Kryžiokai",
      "lat": 54.79161,
      "lon": 25.35127,
      "avg_gap_sec": 253
    },
    {
      "stop_id": "8069",
      "name": "Smalinės st.",
      "lat": 54.70855,
      "lon": 25.18792,
      "avg_gap_sec": 254
    },
    {
      "stop_id": "5074",
      "name": "Vaikų kaimas",
      "lat": 54.70949,
      "lon": 25.24035,
      "avg_gap_sec": 255
    },
    {
      "stop_id": "5206",
      "name": "Musninkų st.",
      "lat": 54.7169,
      "lon": 25.24484,
      "avg_gap_sec": 256
    },
    {
      "stop_id": "17318",
      "name": "Oršos st.",
      "lat": 54.70417,
      "lon": 25.27691,
      "avg_gap_sec": 257
    },
    {
      "stop_id": "342",
      "name": "Arimų st.",
      "lat": 54.70248,
      "lon": 25.43145,
      "avg_gap_sec": 258
    },
    {
      "stop_id": "5360",
      "name": "Misionierių st.",
      "lat": 54.6766,
      "lon": 25.29735,
      "avg_gap_sec": 260
    },
    {
      "stop_id": "5396",
      "name": "Dūmų st.",
      "lat": 54.69318,
      "lon": 25.40137,
      "avg_gap_sec": 261
    },
    {
      "stop_id": "7949",
      "name": "Įsruties st.",
      "lat": 54.70994,
      "lon": 25.18293,
      "avg_gap_sec": 262
    },
    {
      "stop_id": "7046",
      "name": "Jono Kairiūkščio st.",
      "lat": 54.75718,
      "lon": 25.26991,
      "avg_gap_sec": 262
    },
    {
      "stop_id": "8011",
      "name": "Pagubė",
      "lat": 54.80796,
      "lon": 25.3132,
      "avg_gap_sec": 262
    },
    {
      "stop_id": "6874",
      "name": "Valakampių tiltas",
      "lat": 54.72409,
      "lon": 25.30849,
      "avg_gap_sec": 263
    },
    {
      "stop_id": "6264",
      "name": "Salininkų žiedas",
      "lat": 54.61403,
      "lon": 25.25182,
      "avg_gap_sec": 263
    },
    {
      "stop_id": "6961",
      "name": "Dilgynė",
      "lat": 54.63435,
      "lon": 25.25372,
      "avg_gap_sec": 263
    },
    {
      "stop_id": "5415",
      "name": "Dūmų st.",
      "lat": 54.69318,
      "lon": 25.40036,
      "avg_gap_sec": 263
    },
    {
      "stop_id": "5394",
      "name": "Alberto Kojelavičiaus st.",
      "lat": 54.69465,
      "lon": 25.39674,
      "avg_gap_sec": 264
    },
    {
      "stop_id": "4520",
      "name": "Bistryčios st.",
      "lat": 54.7084,
      "lon": 25.33044,
      "avg_gap_sec": 264
    },
    {
      "stop_id": "8472",
      "name": "Vanaginės žiedas",
      "lat": 54.78134,
      "lon": 25.27287,
      "avg_gap_sec": 266
    },
    {
      "stop_id": "6855",
      "name": "Karaliaus Mindaugo tiltas",
      "lat": 54.68867,
      "lon": 25.28663,
      "avg_gap_sec": 267
    },
    {
      "stop_id": "9834",
      "name": "Salos",
      "lat": 54.66833,
      "lon": 25.10068,
      "avg_gap_sec": 268
    },
    {
      "stop_id": "8944",
      "name": "Šviesos st.",
      "lat": 54.66945,
      "lon": 25.09672,
      "avg_gap_sec": 268
    },
    {
      "stop_id": "6603",
      "name": "Kunigiškių st.",
      "lat": 54.67057,
      "lon": 25.09277,
      "avg_gap_sec": 268
    },
    {
      "stop_id": "9082",
      "name": "Grigiškių poliklinika",
      "lat": 54.67194,
      "lon": 25.08946,
      "avg_gap_sec": 268
    },
    {
      "stop_id": "4565",
      "name": "Pagiriai",
      "lat": 54.57716,
      "lon": 25.19829,
      "avg_gap_sec": 268
    },
    {
      "stop_id": "5511",
      "name": "Fabijoniškių žiedas",
      "lat": 54.73933,
      "lon": 25.24044,
      "avg_gap_sec": 270
    },
    {
      "stop_id": "6678",
      "name": "Dunojaus st.",
      "lat": 54.66644,
      "lon": 25.30701,
      "avg_gap_sec": 270
    },
    {
      "stop_id": "6681",
      "name": "Ribiškės",
      "lat": 54.66684,
      "lon": 25.31329,
      "avg_gap_sec": 270
    },
    {
      "stop_id": "6682",
      "name": "Juodasis kelias",
      "lat": 54.66648,
      "lon": 25.3246,
      "avg_gap_sec": 270
    },
    {
      "stop_id": "6680",
      "name": "Ribiškės",
      "lat": 54.66687,
      "lon": 25.3126,
      "avg_gap_sec": 270
    },
    {
      "stop_id": "6679",
      "name": "Dunojaus st.",
      "lat": 54.66661,
      "lon": 25.30673,
      "avg_gap_sec": 270
    },
    {
      "stop_id": "1042",
      "name": "Ukmergės st.",
      "lat": 54.71328,
      "lon": 25.25166,
      "avg_gap_sec": 270
    },
    {
      "stop_id": "6996",
      "name": "Atžalyno st.",
      "lat": 54.71929,
      "lon": 25.21426,
      "avg_gap_sec": 271
    },
    {
      "stop_id": "6998",
      "name": "Mykolo Biržiškos gimnazija",
      "lat": 54.72133,
      "lon": 25.21843,
      "avg_gap_sec": 271
    },
    {
      "stop_id": "18556",
      "name": "Comfort Hotel",
      "lat": 54.67246,
      "lon": 25.27556,
      "avg_gap_sec": 271
    },
    {
      "stop_id": "783",
      "name": "Lazdynų seniūnija",
      "lat": 54.6752,
      "lon": 25.20412,
      "avg_gap_sec": 272
    },
    {
      "stop_id": "3589",
      "name": "Žėručio st.",
      "lat": 54.67661,
      "lon": 25.2084,
      "avg_gap_sec": 272
    },
    {
      "stop_id": "6546",
      "name": "Tuskulėnai",
      "lat": 54.69702,
      "lon": 25.29706,
      "avg_gap_sec": 272
    },
    {
      "stop_id": "6184",
      "name": "Baniškės",
      "lat": 54.73451,
      "lon": 25.3871,
      "avg_gap_sec": 272
    },
    {
      "stop_id": "17268",
      "name": "Šv.Jono Bosko gimnazija",
      "lat": 54.71652,
      "lon": 25.42595,
      "avg_gap_sec": 273
    },
    {
      "stop_id": "9109",
      "name": "Neravų st.",
      "lat": 54.66864,
      "lon": 25.11174,
      "avg_gap_sec": 275
    },
    {
      "stop_id": "5307",
      "name": "Metalo st.",
      "lat": 54.64632,
      "lon": 25.26573,
      "avg_gap_sec": 275
    },
    {
      "stop_id": "5305",
      "name": "Eišiškių plentas",
      "lat": 54.6497,
      "lon": 25.26853,
      "avg_gap_sec": 275
    },
    {
      "stop_id": "5827",
      "name": "Ateities st.",
      "lat": 54.7363,
      "lon": 25.26656,
      "avg_gap_sec": 275
    },
    {
      "stop_id": "5491",
      "name": "Oskaro Milašiaus st.",
      "lat": 54.72783,
      "lon": 25.31438,
      "avg_gap_sec": 276
    },
    {
      "stop_id": "5516",
      "name": "Gedvydžių st.",
      "lat": 54.73702,
      "lon": 25.23822,
      "avg_gap_sec": 276
    },
    {
      "stop_id": "8784",
      "name": "Aukštieji Paneriai",
      "lat": 54.63126,
      "lon": 25.17376,
      "avg_gap_sec": 277
    },
    {
      "stop_id": "7047",
      "name": "Jono Kairiūkščio st.",
      "lat": 54.75705,
      "lon": 25.27026,
      "avg_gap_sec": 277
    },
    {
      "stop_id": "5515",
      "name": "Gedvydžių st.",
      "lat": 54.73634,
      "lon": 25.2373,
      "avg_gap_sec": 278
    },
    {
      "stop_id": "11047",
      "name": "Vieversių st.",
      "lat": 54.70983,
      "lon": 25.32257,
      "avg_gap_sec": 278
    },
    {
      "stop_id": "16306",
      "name": "Kairėnai",
      "lat": 54.73664,
      "lon": 25.4021,
      "avg_gap_sec": 278
    },
    {
      "stop_id": "357",
      "name": "Aukštieji Paneriai",
      "lat": 54.63135,
      "lon": 25.17403,
      "avg_gap_sec": 279
    },
    {
      "stop_id": "6683",
      "name": "Juodasis kelias",
      "lat": 54.66634,
      "lon": 25.32542,
      "avg_gap_sec": 279
    },
    {
      "stop_id": "7663",
      "name": "Lukiškės",
      "lat": 54.69037,
      "lon": 25.27231,
      "avg_gap_sec": 280
    },
    {
      "stop_id": "10359",
      "name": "Vikingų slėnis",
      "lat": 54.65304,
      "lon": 25.28045,
      "avg_gap_sec": 281
    },
    {
      "stop_id": "7947",
      "name": "Smalinės st.",
      "lat": 54.70932,
      "lon": 25.18742,
      "avg_gap_sec": 282
    },
    {
      "stop_id": "6993",
      "name": "Šiaurinė st.",
      "lat": 54.71554,
      "lon": 25.21511,
      "avg_gap_sec": 282
    },
    {
      "stop_id": "5494",
      "name": "Valakampių tiltas",
      "lat": 54.72356,
      "lon": 25.30725,
      "avg_gap_sec": 285
    },
    {
      "stop_id": "15964",
      "name": "Kovo 11-osios st.",
      "lat": 54.6745,
      "lon": 25.08827,
      "avg_gap_sec": 285
    },
    {
      "stop_id": "16236",
      "name": "Grigiškių poliklinika",
      "lat": 54.67278,
      "lon": 25.09004,
      "avg_gap_sec": 285
    },
    {
      "stop_id": "7714",
      "name": "Gurių sodai",
      "lat": 54.65986,
      "lon": 25.35971,
      "avg_gap_sec": 285
    },
    {
      "stop_id": "6995",
      "name": "Atžalyno st.",
      "lat": 54.71826,
      "lon": 25.21413,
      "avg_gap_sec": 285
    },
    {
      "stop_id": "6992",
      "name": "Šiaurinė st.",
      "lat": 54.71497,
      "lon": 25.21486,
      "avg_gap_sec": 285
    },
    {
      "stop_id": "7968",
      "name": "Akademijos st.",
      "lat": 54.75352,
      "lon": 25.26838,
      "avg_gap_sec": 286
    },
    {
      "stop_id": "18847",
      "name": "Žygio st.",
      "lat": 54.70373,
      "lon": 25.28748,
      "avg_gap_sec": 286
    },
    {
      "stop_id": "6035",
      "name": "Grigaičiai",
      "lat": 54.68198,
      "lon": 25.41263,
      "avg_gap_sec": 287
    },
    {
      "stop_id": "7322",
      "name": "Žvejų st.",
      "lat": 54.69004,
      "lon": 25.2887,
      "avg_gap_sec": 288
    },
    {
      "stop_id": "6914",
      "name": "Pijaus Žadeikos st.",
      "lat": 54.7349,
      "lon": 25.24626,
      "avg_gap_sec": 288
    },
    {
      "stop_id": "15581",
      "name": "Aušros vartai",
      "lat": 54.67417,
      "lon": 25.28808,
      "avg_gap_sec": 290
    },
    {
      "stop_id": "9607",
      "name": "Rokantiškių sodai",
      "lat": 54.70606,
      "lon": 25.37675,
      "avg_gap_sec": 290
    },
    {
      "stop_id": "10317",
      "name": "Klonio st.",
      "lat": 54.70586,
      "lon": 25.37112,
      "avg_gap_sec": 290
    },
    {
      "stop_id": "8262",
      "name": "Stotis",
      "lat": 54.67066,
      "lon": 25.28313,
      "avg_gap_sec": 291
    },
    {
      "stop_id": "10530",
      "name": "Žilvičių st.",
      "lat": 54.70684,
      "lon": 25.38076,
      "avg_gap_sec": 292
    },
    {
      "stop_id": "5304",
      "name": "Eišiškių plentas",
      "lat": 54.64925,
      "lon": 25.26784,
      "avg_gap_sec": 294
    },
    {
      "stop_id": "16230",
      "name": "Šumsko kryptis",
      "lat": 54.65934,
      "lon": 25.36306,
      "avg_gap_sec": 294
    },
    {
      "stop_id": "7715",
      "name": "Gurių sodai",
      "lat": 54.65997,
      "lon": 25.35911,
      "avg_gap_sec": 294
    },
    {
      "stop_id": "8004",
      "name": "Kryžiokai",
      "lat": 54.79219,
      "lon": 25.35118,
      "avg_gap_sec": 295
    },
    {
      "stop_id": "8005",
      "name": "Krakiškės",
      "lat": 54.79594,
      "lon": 25.34992,
      "avg_gap_sec": 295
    },
    {
      "stop_id": "8367",
      "name": "Pagubės sodai",
      "lat": 54.80599,
      "lon": 25.32749,
      "avg_gap_sec": 296
    },
    {
      "stop_id": "8017",
      "name": "Diemedis",
      "lat": 54.80289,
      "lon": 25.32974,
      "avg_gap_sec": 296
    },
    {
      "stop_id": "5209",
      "name": "Dūkštų st.",
      "lat": 54.715,
      "lon": 25.24638,
      "avg_gap_sec": 297
    },
    {
      "stop_id": "8945",
      "name": "Kunigiškių st.",
      "lat": 54.67045,
      "lon": 25.09297,
      "avg_gap_sec": 297
    },
    {
      "stop_id": "7350",
      "name": "Erfurto st.",
      "lat": 54.67448,
      "lon": 25.2008,
      "avg_gap_sec": 300
    },
    {
      "stop_id": "329",
      "name": "Akacijų st.",
      "lat": 54.67818,
      "lon": 25.20273,
      "avg_gap_sec": 300
    },
    {
      "stop_id": "4395",
      "name": "Paukščių takas",
      "lat": 54.6798,
      "lon": 25.20734,
      "avg_gap_sec": 300
    },
    {
      "stop_id": "8315",
      "name": "Balsiai",
      "lat": 54.78618,
      "lon": 25.34781,
      "avg_gap_sec": 300
    },
    {
      "stop_id": "7005",
      "name": "Taikos st.",
      "lat": 54.72126,
      "lon": 25.22162,
      "avg_gap_sec": 300
    },
    {
      "stop_id": "6999",
      "name": "Mykolo Biržiškos gimnazija",
      "lat": 54.72153,
      "lon": 25.21716,
      "avg_gap_sec": 300
    },
    {
      "stop_id": "9613",
      "name": "Mileišiškių sodai",
      "lat": 54.71297,
      "lon": 25.34743,
      "avg_gap_sec": 300
    },
    {
      "stop_id": "10612",
      "name": "Duburio st.",
      "lat": 54.70728,
      "lon": 25.39168,
      "avg_gap_sec": 300
    },
    {
      "stop_id": "9605",
      "name": "Uosių sodai",
      "lat": 54.7077,
      "lon": 25.38548,
      "avg_gap_sec": 300
    },
    {
      "stop_id": "6604",
      "name": "Šviesos st.",
      "lat": 54.66959,
      "lon": 25.09601,
      "avg_gap_sec": 302
    },
    {
      "stop_id": "4454",
      "name": "Salos",
      "lat": 54.66862,
      "lon": 25.10393,
      "avg_gap_sec": 302
    },
    {
      "stop_id": "356",
      "name": "Drujos st.",
      "lat": 54.67878,
      "lon": 25.31164,
      "avg_gap_sec": 305
    },
    {
      "stop_id": "8347",
      "name": "Dilgynė",
      "lat": 54.6349,
      "lon": 25.25412,
      "avg_gap_sec": 305
    },
    {
      "stop_id": "6488",
      "name": "Pušynas",
      "lat": 54.73436,
      "lon": 25.27891,
      "avg_gap_sec": 305
    },
    {
      "stop_id": "6491",
      "name": "Seminarija",
      "lat": 54.73702,
      "lon": 25.27791,
      "avg_gap_sec": 305
    },
    {
      "stop_id": "6032",
      "name": "Grigaičiai",
      "lat": 54.68095,
      "lon": 25.41305,
      "avg_gap_sec": 305
    },
    {
      "stop_id": "10531",
      "name": "Žilvičių st.",
      "lat": 54.70689,
      "lon": 25.38114,
      "avg_gap_sec": 305
    },
    {
      "stop_id": "9604",
      "name": "Uosių sodai",
      "lat": 54.70754,
      "lon": 25.38691,
      "avg_gap_sec": 305
    },
    {
      "stop_id": "14663",
      "name": "Duburio st.",
      "lat": 54.70731,
      "lon": 25.39033,
      "avg_gap_sec": 305
    },
    {
      "stop_id": "6294",
      "name": "Kauno plentas",
      "lat": 54.65524,
      "lon": 25.15088,
      "avg_gap_sec": 307
    },
    {
      "stop_id": "9755",
      "name": "Mileišiškės",
      "lat": 54.71176,
      "lon": 25.34174,
      "avg_gap_sec": 307
    },
    {
      "stop_id": "6688",
      "name": "Guriai",
      "lat": 54.66285,
      "lon": 25.34007,
      "avg_gap_sec": 308
    },
    {
      "stop_id": "8268",
      "name": "Jurgio Baltrušaičio st.",
      "lat": 54.72944,
      "lon": 25.23738,
      "avg_gap_sec": 310
    },
    {
      "stop_id": "10319",
      "name": "Klonio st.",
      "lat": 54.70582,
      "lon": 25.371,
      "avg_gap_sec": 310
    },
    {
      "stop_id": "9606",
      "name": "Rokantiškių sodai",
      "lat": 54.7059,
      "lon": 25.37578,
      "avg_gap_sec": 310
    },
    {
      "stop_id": "5423",
      "name": "Šaudykla",
      "lat": 54.68899,
      "lon": 25.33066,
      "avg_gap_sec": 313
    },
    {
      "stop_id": "5425",
      "name": "Belmontas",
      "lat": 54.68379,
      "lon": 25.3194,
      "avg_gap_sec": 313
    },
    {
      "stop_id": "6183",
      "name": "Baniškės",
      "lat": 54.73453,
      "lon": 25.38833,
      "avg_gap_sec": 319
    },
    {
      "stop_id": "6911",
      "name": "Sporto gimnazija",
      "lat": 54.73299,
      "lon": 25.2447,
      "avg_gap_sec": 320
    },
    {
      "stop_id": "5373",
      "name": "Šaudykla",
      "lat": 54.68902,
      "lon": 25.33243,
      "avg_gap_sec": 321
    },
    {
      "stop_id": "7587",
      "name": "Mildos st.",
      "lat": 54.69147,
      "lon": 25.34376,
      "avg_gap_sec": 321
    },
    {
      "stop_id": "9925",
      "name": "Vinciūniškės",
      "lat": 54.7591,
      "lon": 25.39505,
      "avg_gap_sec": 322
    },
    {
      "stop_id": "7323",
      "name": "Žvejų st.",
      "lat": 54.6917,
      "lon": 25.2891,
      "avg_gap_sec": 324
    },
    {
      "stop_id": "7980",
      "name": "Akademijos st.",
      "lat": 54.75391,
      "lon": 25.27025,
      "avg_gap_sec": 325
    },
    {
      "stop_id": "6533",
      "name": "Vaikų ligoninė",
      "lat": 54.75633,
      "lon": 25.28131,
      "avg_gap_sec": 325
    },
    {
      "stop_id": "9054",
      "name": "Ragės st.",
      "lat": 54.78468,
      "lon": 25.35194,
      "avg_gap_sec": 325
    },
    {
      "stop_id": "16832",
      "name": "Žynių st.",
      "lat": 54.78168,
      "lon": 25.35503,
      "avg_gap_sec": 325
    },
    {
      "stop_id": "15113",
      "name": "Laimos st.",
      "lat": 54.7781,
      "lon": 25.35586,
      "avg_gap_sec": 325
    },
    {
      "stop_id": "9047",
      "name": "Žalčių st.",
      "lat": 54.77816,
      "lon": 25.35174,
      "avg_gap_sec": 325
    },
    {
      "stop_id": "9626",
      "name": "Mūrinė Vokė",
      "lat": 54.64838,
      "lon": 25.12157,
      "avg_gap_sec": 327
    },
    {
      "stop_id": "6966",
      "name": "Ąžuolijai",
      "lat": 54.62186,
      "lon": 25.24387,
      "avg_gap_sec": 328
    },
    {
      "stop_id": "6964",
      "name": "Eišiškių sodai",
      "lat": 54.62625,
      "lon": 25.24947,
      "avg_gap_sec": 328
    },
    {
      "stop_id": "8250",
      "name": "Lazerių st.",
      "lat": 54.72937,
      "lon": 25.37476,
      "avg_gap_sec": 328
    },
    {
      "stop_id": "603",
      "name": "Krivių st.",
      "lat": 54.68802,
      "lon": 25.30531,
      "avg_gap_sec": 330
    },
    {
      "stop_id": "6566",
      "name": "Vasaros st.",
      "lat": 54.69122,
      "lon": 25.30503,
      "avg_gap_sec": 330
    },
    {
      "stop_id": "364",
      "name": "Juliaus Juzeliūno st.",
      "lat": 54.73041,
      "lon": 25.23684,
      "avg_gap_sec": 331
    },
    {
      "stop_id": "7079",
      "name": "Medelynas",
      "lat": 54.74959,
      "lon": 25.21489,
      "avg_gap_sec": 331
    },
    {
      "stop_id": "9756",
      "name": "Mileišiškės",
      "lat": 54.71172,
      "lon": 25.34209,
      "avg_gap_sec": 331
    },
    {
      "stop_id": "9612",
      "name": "Mileišiškių sodai",
      "lat": 54.71312,
      "lon": 25.34809,
      "avg_gap_sec": 331
    },
    {
      "stop_id": "8018",
      "name": "Paežerys",
      "lat": 54.80012,
      "lon": 25.33534,
      "avg_gap_sec": 334
    },
    {
      "stop_id": "10551",
      "name": "Krakiškių sodai",
      "lat": 54.80074,
      "lon": 25.34014,
      "avg_gap_sec": 334
    },
    {
      "stop_id": "18426",
      "name": "Naujaneriai",
      "lat": 54.80143,
      "lon": 25.34802,
      "avg_gap_sec": 334
    },
    {
      "stop_id": "9738",
      "name": "Vikingų st.",
      "lat": 54.65123,
      "lon": 25.28203,
      "avg_gap_sec": 335
    },
    {
      "stop_id": "6950",
      "name": "Verslo st.",
      "lat": 54.63933,
      "lon": 25.25934,
      "avg_gap_sec": 336
    },
    {
      "stop_id": "6947",
      "name": "Hidrogeologijos st.",
      "lat": 54.64344,
      "lon": 25.26321,
      "avg_gap_sec": 336
    },
    {
      "stop_id": "7818",
      "name": "Ašmenėlės st.",
      "lat": 54.66035,
      "lon": 25.35536,
      "avg_gap_sec": 337
    },
    {
      "stop_id": "7712",
      "name": "Pranciškaus Baltraus Šivickio st.",
      "lat": 54.66132,
      "lon": 25.34958,
      "avg_gap_sec": 337
    },
    {
      "stop_id": "15114",
      "name": "Laimos st.",
      "lat": 54.77804,
      "lon": 25.35628,
      "avg_gap_sec": 338
    },
    {
      "stop_id": "9045",
      "name": "Austėjos st.",
      "lat": 54.77823,
      "lon": 25.34554,
      "avg_gap_sec": 339
    },
    {
      "stop_id": "6260",
      "name": "Mechanikų st.",
      "lat": 54.60968,
      "lon": 25.25171,
      "avg_gap_sec": 342
    },
    {
      "stop_id": "6254",
      "name": "Jono Stašaičio st.",
      "lat": 54.60525,
      "lon": 25.25838,
      "avg_gap_sec": 342
    },
    {
      "stop_id": "9046",
      "name": "Austėjos st.",
      "lat": 54.77817,
      "lon": 25.34615,
      "avg_gap_sec": 342
    },
    {
      "stop_id": "9048",
      "name": "Žalčių st.",
      "lat": 54.77804,
      "lon": 25.35262,
      "avg_gap_sec": 342
    },
    {
      "stop_id": "16978",
      "name": "Žirnių st.",
      "lat": 54.6547,
      "lon": 25.30181,
      "avg_gap_sec": 344
    },
    {
      "stop_id": "6217",
      "name": "Uosių st.",
      "lat": 54.69903,
      "lon": 25.40122,
      "avg_gap_sec": 344
    },
    {
      "stop_id": "17009",
      "name": "Gerviškių st.",
      "lat": 54.68233,
      "lon": 25.42822,
      "avg_gap_sec": 344
    },
    {
      "stop_id": "5953",
      "name": "Žirnių st.",
      "lat": 54.65307,
      "lon": 25.3027,
      "avg_gap_sec": 345
    },
    {
      "stop_id": "5955",
      "name": "Kelininkų st.",
      "lat": 54.64917,
      "lon": 25.30266,
      "avg_gap_sec": 345
    },
    {
      "stop_id": "5956",
      "name": "Šalčininkų kryptis",
      "lat": 54.64398,
      "lon": 25.30273,
      "avg_gap_sec": 345
    },
    {
      "stop_id": "1144",
      "name": "Ožkinių žiedas",
      "lat": 54.76844,
      "lon": 25.36646,
      "avg_gap_sec": 345
    },
    {
      "stop_id": "16725",
      "name": "Savičiūnų st.",
      "lat": 54.6545,
      "lon": 25.3533,
      "avg_gap_sec": 346
    },
    {
      "stop_id": "16715",
      "name": "Airių st.",
      "lat": 54.65204,
      "lon": 25.3498,
      "avg_gap_sec": 346
    },
    {
      "stop_id": "9599",
      "name": "Juodupio st.",
      "lat": 54.65318,
      "lon": 25.34127,
      "avg_gap_sec": 346
    },
    {
      "stop_id": "7076",
      "name": "Pavilionys",
      "lat": 54.74187,
      "lon": 25.2241,
      "avg_gap_sec": 347
    },
    {
      "stop_id": "7624",
      "name": "Platiniškės",
      "lat": 54.71351,
      "lon": 25.13098,
      "avg_gap_sec": 347
    },
    {
      "stop_id": "5022",
      "name": "Autobusų parkas",
      "lat": 54.72092,
      "lon": 25.29589,
      "avg_gap_sec": 348
    },
    {
      "stop_id": "5986",
      "name": "Skaidiškės",
      "lat": 54.6064,
      "lon": 25.38357,
      "avg_gap_sec": 348
    },
    {
      "stop_id": "5756",
      "name": "Šaltinio st.",
      "lat": 54.60143,
      "lon": 25.18212,
      "avg_gap_sec": 350
    },
    {
      "stop_id": "7691",
      "name": "Žalgirio st.",
      "lat": 54.70378,
      "lon": 25.28221,
      "avg_gap_sec": 350
    },
    {
      "stop_id": "6079",
      "name": "Lakštingalų st.",
      "lat": 54.7288,
      "lon": 25.32883,
      "avg_gap_sec": 350
    },
    {
      "stop_id": "6401",
      "name": "Oslo st.",
      "lat": 54.67007,
      "lon": 25.19877,
      "avg_gap_sec": 350
    },
    {
      "stop_id": "6379",
      "name": "Jonažolių st.",
      "lat": 54.66985,
      "lon": 25.20846,
      "avg_gap_sec": 350
    },
    {
      "stop_id": "7560",
      "name": "Oslo st.",
      "lat": 54.66953,
      "lon": 25.19796,
      "avg_gap_sec": 353
    },
    {
      "stop_id": "7171",
      "name": "Žaros st.",
      "lat": 54.66672,
      "lon": 25.19581,
      "avg_gap_sec": 353
    },
    {
      "stop_id": "6257",
      "name": "Salininkai",
      "lat": 54.60565,
      "lon": 25.25118,
      "avg_gap_sec": 354
    },
    {
      "stop_id": "6253",
      "name": "Jono Stašaičio st.",
      "lat": 54.60512,
      "lon": 25.26033,
      "avg_gap_sec": 354
    },
    {
      "stop_id": "17007",
      "name": "Gerviškių st.",
      "lat": 54.68233,
      "lon": 25.42799,
      "avg_gap_sec": 354
    },
    {
      "stop_id": "16454",
      "name": "Meškonių st.",
      "lat": 54.68002,
      "lon": 25.42011,
      "avg_gap_sec": 354
    },
    {
      "stop_id": "8339",
      "name": "Metalo st.",
      "lat": 54.64581,
      "lon": 25.26501,
      "avg_gap_sec": 356
    },
    {
      "stop_id": "6948",
      "name": "Hidrogeologijos st.",
      "lat": 54.64295,
      "lon": 25.26267,
      "avg_gap_sec": 356
    },
    {
      "stop_id": "6949",
      "name": "Verslo st.",
      "lat": 54.63898,
      "lon": 25.25882,
      "avg_gap_sec": 356
    },
    {
      "stop_id": "5780",
      "name": "Vingio parkas",
      "lat": 54.67405,
      "lon": 25.24199,
      "avg_gap_sec": 360
    },
    {
      "stop_id": "6230",
      "name": "Alberto Kojelavičiaus st.",
      "lat": 54.69631,
      "lon": 25.39844,
      "avg_gap_sec": 360
    },
    {
      "stop_id": "7810",
      "name": "Vėtrungių st.",
      "lat": 54.73817,
      "lon": 25.23175,
      "avg_gap_sec": 360
    },
    {
      "stop_id": "7811",
      "name": "Liudviko Zamenhofo st.",
      "lat": 54.74106,
      "lon": 25.22889,
      "avg_gap_sec": 360
    },
    {
      "stop_id": "18831",
      "name": "Mykolo Lietuvio st.",
      "lat": 54.74337,
      "lon": 25.2262,
      "avg_gap_sec": 360
    },
    {
      "stop_id": "17129",
      "name": "Žvorūnos st.",
      "lat": 54.78773,
      "lon": 25.35966,
      "avg_gap_sec": 360
    },
    {
      "stop_id": "6568",
      "name": "Krivių st.",
      "lat": 54.6873,
      "lon": 25.30562,
      "avg_gap_sec": 363
    },
    {
      "stop_id": "5421",
      "name": "Mildos st.",
      "lat": 54.69162,
      "lon": 25.34337,
      "avg_gap_sec": 363
    },
    {
      "stop_id": "5960",
      "name": "Lydos st.",
      "lat": 54.62522,
      "lon": 25.30547,
      "avg_gap_sec": 363
    },
    {
      "stop_id": "4266",
      "name": "Stotis",
      "lat": 54.67108,
      "lon": 25.2842,
      "avg_gap_sec": 363
    },
    {
      "stop_id": "931",
      "name": "Srovės st.",
      "lat": 54.68188,
      "lon": 25.31555,
      "avg_gap_sec": 366
    },
    {
      "stop_id": "6286",
      "name": "Mūrinė Vokė",
      "lat": 54.64828,
      "lon": 25.12176,
      "avg_gap_sec": 366
    },
    {
      "stop_id": "9660",
      "name": "Pavilnio regioninis parkas",
      "lat": 54.66007,
      "lon": 25.33748,
      "avg_gap_sec": 367
    },
    {
      "stop_id": "7359",
      "name": "Giraitės st.",
      "lat": 54.66873,
      "lon": 25.23817,
      "avg_gap_sec": 369
    },
    {
      "stop_id": "7959",
      "name": "Pajautos st.",
      "lat": 54.70977,
      "lon": 25.17488,
      "avg_gap_sec": 370
    },
    {
      "stop_id": "3560",
      "name": "Žaros st.",
      "lat": 54.66649,
      "lon": 25.19576,
      "avg_gap_sec": 370
    },
    {
      "stop_id": "7711",
      "name": "Pranciškaus Baltraus Šivickio st.",
      "lat": 54.66124,
      "lon": 25.34986,
      "avg_gap_sec": 370
    },
    {
      "stop_id": "8006",
      "name": "Naujaneriai",
      "lat": 54.80173,
      "lon": 25.34841,
      "avg_gap_sec": 370
    },
    {
      "stop_id": "6703",
      "name": "Įtraukties centras",
      "lat": 54.67501,
      "lon": 25.36844,
      "avg_gap_sec": 371
    },
    {
      "stop_id": "5996",
      "name": "Kelininkų st.",
      "lat": 54.65048,
      "lon": 25.30308,
      "avg_gap_sec": 372
    },
    {
      "stop_id": "387",
      "name": "Belmontas",
      "lat": 54.68403,
      "lon": 25.32038,
      "avg_gap_sec": 372
    },
    {
      "stop_id": "3566",
      "name": "Saulėtekis",
      "lat": 54.72719,
      "lon": 25.32671,
      "avg_gap_sec": 372
    },
    {
      "stop_id": "6290",
      "name": "Kulokiškės",
      "lat": 54.64564,
      "lon": 25.14227,
      "avg_gap_sec": 372
    },
    {
      "stop_id": "7710",
      "name": "Guriai",
      "lat": 54.66245,
      "lon": 25.34243,
      "avg_gap_sec": 373
    },
    {
      "stop_id": "7819",
      "name": "Ašmenėlės st.",
      "lat": 54.66028,
      "lon": 25.35559,
      "avg_gap_sec": 373
    },
    {
      "stop_id": "10552",
      "name": "Krakiškių sodai",
      "lat": 54.80091,
      "lon": 25.34074,
      "avg_gap_sec": 373
    },
    {
      "stop_id": "8008",
      "name": "Paežerys",
      "lat": 54.8003,
      "lon": 25.33611,
      "avg_gap_sec": 373
    },
    {
      "stop_id": "8009",
      "name": "Diemedis",
      "lat": 54.80323,
      "lon": 25.32958,
      "avg_gap_sec": 373
    },
    {
      "stop_id": "5779",
      "name": "Vingio parkas",
      "lat": 54.6728,
      "lon": 25.23943,
      "avg_gap_sec": 374
    },
    {
      "stop_id": "7358",
      "name": "Giraitės st.",
      "lat": 54.66898,
      "lon": 25.23783,
      "avg_gap_sec": 374
    },